[
   {
      "id": "9679",
      "name": "Luigi Faleschini",
      "address": "Via Zardini, 15",
      "city": "Pontebba",
      "lat": "46.5065330000000",
      "lng": "13.3037750000000",
      "type": "95",
      "phone": "0428 91005"
   },
   {
      "id": "4074",
      "name": "Associazione Aglio di Resia",
      "address": "Piazza del Tiglio, 3",
      "city": "Prato di Resia",
      "lat": "46.3733463000000",
      "lng": "13.3066746000000",
      "type": "95",
      "phone": "3355708226"
   },
   {
      "id": "13986",
      "name": "Azienda agricola La Resiana",
      "address": "Via varcota 11",
      "city": "Resia",
      "lat": "46.3762763000000",
      "lng": "13.3000979000000",
      "type": "95",
      "phone": "3493060139"
   },
   {
      "id": "14187",
      "name": "Salumi e Sapori di Timau",
      "address": "Via Maria Plozner Mentil",
      "city": "Timau",
      "lat": "46.5825816000000",
      "lng": "13.0056744000000",
      "type": "95",
      "phone": "3381784395"
   },
   {
      "id": "8340",
      "name": "Zore",
      "address": "Località Zore-Platischis, 37",
      "city": "Taipana",
      "lat": "46.2595090000000",
      "lng": "13.3517570000000",
      "type": "95",
      "phone": "333 4581123"
   },
   {
      "id": "3965",
      "name": "Zore",
      "address": "Loc. Zore – Platischis, 37",
      "city": "Taipana-Tipajski",
      "lat": "46.2595090000000",
      "lng": "13.3517570000000",
      "type": "95",
      "phone": "3334581123"
   },
   {
      "id": "10111",
      "name": "Claudio Qualizza",
      "address": "Frazione Merso di Sopra, 5",
      "city": "San Leonardo",
      "lat": "46.1217639000000",
      "lng": "13.5260177000000",
      "type": "95",
      "phone": "0432 723009"
   },
   {
      "id": "9409",
      "name": "Beuzer Giovanni",
      "address": "Frazione Scrutto, 115",
      "city": "San Leonardo",
      "lat": "46.1177555000000",
      "lng": "13.5140302000000",
      "type": "95",
      "phone": "0432 723003"
   },
   {
      "id": "15809",
      "name": "Dimont",
      "address": "Via Nazionale",
      "city": "Arta Terme",
      "lat": "46.4575680000000",
      "lng": "13.0342100000000",
      "type": "95",
      "phone": "335 7721481"
   },
   {
      "id": "3961",
      "name": "Gubana della Nonna",
      "address": "Via Algida 63",
      "city": "San Pietro al Natisone",
      "lat": "46.1181951000000",
      "lng": "13.4920727000000",
      "type": "95",
      "phone": "0432727234"
   },
   {
      "id": "9572",
      "name": "La Gubana della Nonna",
      "address": "Località Azzida Via Algida, 63",
      "city": "San Pietro al Natisone",
      "lat": "46.1181951000000",
      "lng": "13.4920727000000",
      "type": "95",
      "phone": "0432 727234"
   },
   {
      "id": "7612",
      "name": "Gjulia",
      "address": "Via Zona Industriale",
      "city": "San Pietro al Natisone-Spietar Slovenov",
      "lat": "46.1167660000000",
      "lng": "13.4836350000000",
      "type": "95",
      "phone": "0432 716344"
   },
   {
      "id": "3960",
      "name": "Giardino Commestibile",
      "address": "Borgo Tamar",
      "city": "Nimis",
      "lat": "46.2358160000000",
      "lng": "13.2745460000000",
      "type": "95",
      "phone": "3404901359"
   },
   {
      "id": "8911",
      "name": "Il Giardino Commestibile",
      "address": "Borgo Tamar",
      "city": "Nimis",
      "lat": "46.2358160000000",
      "lng": "13.2745460000000",
      "type": "95",
      "phone": "340 4901359"
   },
   {
      "id": "3946",
      "name": "Casa del Grivò",
      "address": "Borgo Canal del Ferro, 19",
      "city": "Faedis",
      "lat": "46.1606371000000",
      "lng": "13.3581771000000",
      "type": "95",
      "phone": "0432728638"
   },
   {
      "id": "3964",
      "name": "Scubla Alimentari",
      "address": "Corso Giuseppe Mazzini, 33",
      "city": "Cividale del Friuli",
      "lat": "46.0938890000000",
      "lng": "13.4307465000000",
      "type": "95",
      "phone": "0432731995"
   },
   {
      "id": "8436",
      "name": "Scubla Alimentari",
      "address": "Corso Giuseppe Mazzini, 33",
      "city": "Cividale del Friuli",
      "lat": "46.0938890000000",
      "lng": "13.4307465000000",
      "type": "95",
      "phone": "0432 731995"
   },
   {
      "id": "10285",
      "name": "Ducale",
      "address": "Piazza Picco, 24",
      "city": "Cividale del Friuli",
      "lat": "46.0943413000000",
      "lng": "13.4286505000000",
      "type": "95",
      "phone": "0432 730707"
   },
   {
      "id": "3962",
      "name": "Pasticceria Gelateria Ducale",
      "address": "Piazza Picco 24",
      "city": "Cividale del Friuli",
      "lat": "46.0943413000000",
      "lng": "13.4286505000000",
      "type": "95",
      "phone": "0432730707"
   },
   {
      "id": "10288",
      "name": "Macorig",
      "address": "Via Borgo San Pietro, 11",
      "city": "Cividale del Friuli",
      "lat": "46.0932831000000",
      "lng": "13.4277781000000",
      "type": "95",
      "phone": "0432 700007"
   },
   {
      "id": "15662",
      "name": "Il Roncal",
      "address": "Via Fornalis, 148",
      "city": "Cividale del Friuli",
      "lat": "46.0713160000000",
      "lng": "13.4621520000000",
      "type": "95",
      "phone": "0432 730138"
   },
   {
      "id": "13365",
      "name": "Azienda agricola Paolino",
      "address": "Via Rualis 52",
      "city": "Cividale del friuli",
      "lat": "46.0837572000000",
      "lng": "13.4329164000000",
      "type": "95",
      "phone": "3481316136"
   },
   {
      "id": "13364",
      "name": "Associazione Produttori Pan di Sorc",
      "address": "largo Beorcje 12",
      "city": "Gemona del Friuli",
      "lat": "46.2926499000000",
      "lng": "13.1212364000000",
      "type": "95",
      "phone": "3311694015"
   },
   {
      "id": "14684",
      "name": "Associazione Produttori Antichi Mais Friulani",
      "address": "Largo Beorcje",
      "city": "Gemona del Friuli",
      "lat": "46.2926499000000",
      "lng": "13.1212364000000",
      "type": "95",
      "phone": "3311694015"
   },
   {
      "id": "3963",
      "name": "Il Forno Di Scialino e Rizzo",
      "address": "Via Alfonso Morgante 32",
      "city": "Tarcento",
      "lat": "46.2169680000000",
      "lng": "13.2231729000000",
      "type": "95",
      "phone": "0432785654"
   },
   {
      "id": "11147",
      "name": "Il Forno di Scialino e Rizzo",
      "address": "Via Morgante, 39",
      "city": "Tarcento",
      "lat": "46.2168138000000",
      "lng": "13.2229663000000",
      "type": "95",
      "phone": "0432 785654"
   },
   {
      "id": "3945",
      "name": "Canais Da La Mîl",
      "address": "Via Prampero 100",
      "city": "Magnano in Riviera",
      "lat": "46.2279906000000",
      "lng": "13.1878094000000",
      "type": "95",
      "phone": "3487532374"
   },
   {
      "id": "10608",
      "name": "Canais da la Mîl",
      "address": "Frazione Billerio Via Prampero, 100",
      "city": "Magnano in Riviera",
      "lat": "46.2265410000000",
      "lng": "13.1895190000000",
      "type": "95",
      "phone": "348 7532374"
   },
   {
      "id": "4070",
      "name": "Latteria Turnaria di Campolessi",
      "address": "Via San Marco, 7",
      "city": "Campolessi",
      "lat": "46.2513915000000",
      "lng": "13.1150431000000",
      "type": "95",
      "phone": "3473027668"
   },
   {
      "id": "15471",
      "name": "Alessio Komjanc e figli",
      "address": "Località Giasbana, 35",
      "city": "San Floriano del Collio",
      "lat": "45.9638375000000",
      "lng": "13.5510483000000",
      "type": "95",
      "phone": "0481 391228"
   },
   {
      "id": "4155",
      "name": "Antica Macelleria Boschetti",
      "address": "Piazza Mazzini, 2",
      "city": "Tricesimo",
      "lat": "46.1617369000000",
      "lng": "13.2105822000000",
      "type": "95",
      "phone": "0432851881"
   },
   {
      "id": "7757",
      "name": "Birrificio Campestre",
      "address": "Via IV Novembre",
      "city": "Corno di Rosazzo",
      "lat": "45.9908857000000",
      "lng": "13.4445964000000",
      "type": "95",
      "phone": "345 2937130"
   },
   {
      "id": "10169",
      "name": "Il Campo Incantato",
      "address": "Via Leonardo da Vinci, 20",
      "city": "Tavagnacco",
      "lat": "46.1244660000000",
      "lng": "13.2145183000000",
      "type": "95",
      "phone": "0432 661057"
   },
   {
      "id": "9027",
      "name": "Colli di Buttrio",
      "address": "Via Rieppi, 4",
      "city": "Buttrio",
      "lat": "46.0193489000000",
      "lng": "13.3429870000000",
      "type": "95",
      "phone": "0432 674482"
   },
   {
      "id": "10507",
      "name": "Fiordilatte",
      "address": "Via Cividale, 53",
      "city": "Udine",
      "lat": "46.0692336000000",
      "lng": "13.2483048000000",
      "type": "95",
      "phone": "0432 502072"
   },
   {
      "id": "7742",
      "name": "Borderline Brewery",
      "address": "Via Malignani",
      "city": "Buttrio",
      "lat": "46.0088220000000",
      "lng": "13.3278770000000",
      "type": "95",
      "phone": "339 7572717"
   },
   {
      "id": "10744",
      "name": "Laboratorio del Dolce",
      "address": "Vicolo Sottomonte, 2",
      "city": "Udine",
      "lat": "46.0637958000000",
      "lng": "13.2353213000000",
      "type": "95",
      "phone": "0432 299375"
   },
   {
      "id": "4180",
      "name": "Laboratorio Del Dolce",
      "address": "Vicolo Sottomonte 2",
      "city": "Udine",
      "lat": "46.0637958000000",
      "lng": "13.2353213000000",
      "type": "95",
      "phone": ""
   },
   {
      "id": "15583",
      "name": "Castelvecchio",
      "address": "Via Castelnuovo, 2",
      "city": "Sagrado",
      "lat": "45.8725280000000",
      "lng": "13.4986400000000",
      "type": "95",
      "phone": "0481 99742"
   },
   {
      "id": "10697",
      "name": "Casale Cjanor",
      "address": "Via Casali Lini, 9",
      "city": "Fagagna",
      "lat": "46.1266973000000",
      "lng": "13.0941212000000",
      "type": "95",
      "phone": "0432 801810"
   },
   {
      "id": "4067",
      "name": "Casale Cjanor",
      "address": "Via Casali Lini, 9",
      "city": "Fagagna",
      "lat": "46.1266973000000",
      "lng": "13.0941212000000",
      "type": "95",
      "phone": "0432801810"
   },
   {
      "id": "10369",
      "name": "Agriristoro Antonic",
      "address": "Loc. Ceroglie-Cerovlje 44",
      "city": "Duino Aurisina-Devin Nabrežina",
      "lat": "45.7891401000000",
      "lng": "13.6423125000000",
      "type": "95",
      "phone": "340 5847185"
   },
   {
      "id": "10680",
      "name": "Fattoria Carsica Bajta",
      "address": "Località Sales-Salež, 108",
      "city": "Sgonico-Zgonik",
      "lat": "45.7460106000000",
      "lng": "13.7222857000000",
      "type": "95",
      "phone": "040 2296090"
   },
   {
      "id": "11007",
      "name": "Borgo Riolo",
      "address": "Via Riolo, 22",
      "city": "Fagagna",
      "lat": "46.1122048000000",
      "lng": "13.0918871000000",
      "type": "95",
      "phone": "349 7702306"
   },
   {
      "id": "10852",
      "name": "Latteria Sociale Borgo Paludo",
      "address": "Via San Daniele, 4",
      "city": "Fagagna",
      "lat": "46.1173984000000",
      "lng": "13.0828431000000",
      "type": "95",
      "phone": "0432 800215"
   },
   {
      "id": "14124",
      "name": "Biscotti Sartorelli - Eredi De Mario Sartor Enno",
      "address": "Piazza Santissima Trinità",
      "city": "Santo Stefano di Cadore",
      "lat": "46.5723890000000",
      "lng": "12.5462387000000",
      "type": "95",
      "phone": "0435 450328"
   },
   {
      "id": "4066",
      "name": "Mario Lizzi",
      "address": "Via Umberto I, 29",
      "city": "Fagagna",
      "lat": "46.1127599000000",
      "lng": "13.0850574000000",
      "type": "95",
      "phone": "0432800376"
   },
   {
      "id": "10845",
      "name": "Mario Lizzi",
      "address": "Via Umberto I, 29",
      "city": "Fagagna",
      "lat": "46.1127599000000",
      "lng": "13.0850574000000",
      "type": "95",
      "phone": "0432 800376"
   },
   {
      "id": "11167",
      "name": "I Piaceri della Carne",
      "address": "Via Gabriele Luigi Pecile, 7",
      "city": "Fagagna",
      "lat": "46.1110369000000",
      "lng": "13.0848203000000",
      "type": "95",
      "phone": "0432 801743"
   },
   {
      "id": "11177",
      "name": "La Bolane",
      "address": "Via Gemona, 59",
      "city": "San Daniele del Friuli",
      "lat": "46.1650547000000",
      "lng": "13.0087993000000",
      "type": "95",
      "phone": "329 4052203"
   },
   {
      "id": "4093",
      "name": "Prosciutterie Dok Dall'Ava",
      "address": "Via Gemona, 29",
      "city": "San Daniele del Friuli",
      "lat": "46.1644664000000",
      "lng": "13.0074544000000",
      "type": "95",
      "phone": "0432940280"
   },
   {
      "id": "7836",
      "name": "The Lure",
      "address": "Via dell'Artigianato",
      "city": "Fogliano Redipuglia",
      "lat": "45.8591126000000",
      "lng": "13.4749876000000",
      "type": "95",
      "phone": "347 0081556"
   },
   {
      "id": "4149",
      "name": "Friultrota",
      "address": "Via Aonedis, 10",
      "city": "San Daniele del Friuli",
      "lat": "46.1724225000000",
      "lng": "12.9783306000000",
      "type": "95",
      "phone": "0432956560"
   },
   {
      "id": "3598",
      "name": "Apicoltori Settimi & Ziani",
      "address": "Fraz. Trebiciano 237",
      "city": "Trieste",
      "lat": "45.6731096000000",
      "lng": "13.8233604000000",
      "type": "95",
      "phone": "0402158246"
   },
   {
      "id": "7523",
      "name": "Cittavecchia",
      "address": "Z.A. Stazione di Prosecco",
      "city": "Sgonico",
      "lat": "45.7076650000000",
      "lng": "13.7470490000000",
      "type": "95",
      "phone": "040 251060"
   },
   {
      "id": "8832",
      "name": "Forno Arcano",
      "address": "Via del Cristo, 8",
      "city": "Rive d'Arcano",
      "lat": "46.1217600000000",
      "lng": "13.0284350000000",
      "type": "95",
      "phone": "0432 809348"
   },
   {
      "id": "4148",
      "name": "Forno Arcano",
      "address": "Via del Cristo, 8/2",
      "city": "Rive d'Arcano",
      "lat": "46.1217600000000",
      "lng": "13.0284350000000",
      "type": "95",
      "phone": "0432809348"
   },
   {
      "id": "3702",
      "name": "Azienda agricola Capramica",
      "address": "Via Tagliamento, 26",
      "city": "Pinzano al Tagliamento",
      "lat": "46.1782250000000",
      "lng": "12.9423450000000",
      "type": "95",
      "phone": "3385463400"
   },
   {
      "id": "8784",
      "name": "Borgo Titol",
      "address": "Frazione Borgo Titol",
      "city": "Tramonti di Sopra",
      "lat": "46.3026646000000",
      "lng": "12.7756751000000",
      "type": "95",
      "phone": "3358222876"
   },
   {
      "id": "4073",
      "name": "Renato Gortani e Figli",
      "address": "Via Palmanova, 16",
      "city": "Santa Maria La Longa",
      "lat": "45.9211072000000",
      "lng": "13.2944748000000",
      "type": "95",
      "phone": "0432995365"
   },
   {
      "id": "10036",
      "name": "Renato Gortani e Figli",
      "address": "Località Mereto di CapitoloVia Palmanova, 16",
      "city": "Santa Maria La Longa",
      "lat": "45.9209327000000",
      "lng": "13.2946250000000",
      "type": "95",
      "phone": "0432 995365"
   },
   {
      "id": "5982",
      "name": "Gelateria Soban",
      "address": "Via Marco Tullio Cicerone",
      "city": "Trieste",
      "lat": "45.6538825000000",
      "lng": "13.7784260000000",
      "type": "95",
      "phone": "3914617405"
   },
   {
      "id": "8495",
      "name": "La Salumeria di Elena Debiasi",
      "address": "Via Beccaria, 13",
      "city": "Trieste",
      "lat": "45.6536047000000",
      "lng": "13.7779085000000",
      "type": "95",
      "phone": "040 361470"
   },
   {
      "id": "4187",
      "name": "Al Golfo di Trieste",
      "address": "Via del Coroneo, 12",
      "city": "Trieste",
      "lat": "45.6534900000000",
      "lng": "13.7779660000000",
      "type": "95",
      "phone": "0402470089"
   },
   {
      "id": "8475",
      "name": "Villanovich",
      "address": "Via delle Torri, 1",
      "city": "Trieste",
      "lat": "45.6510075000000",
      "lng": "13.7756878000000",
      "type": "95",
      "phone": "040 631820"
   },
   {
      "id": "4186",
      "name": "Sapori di Campagna",
      "address": "Via Carducci, 36",
      "city": "Trieste",
      "lat": "45.6490132000000",
      "lng": "13.7787597000000",
      "type": "95",
      "phone": "346 0948829"
   },
   {
      "id": "12969",
      "name": "Thierry Codarin",
      "address": "Via Genova 17/a",
      "city": "Trieste",
      "lat": "45.6514000000000",
      "lng": "13.7727600000000",
      "type": "95",
      "phone": "3510176612"
   },
   {
      "id": "4078",
      "name": "Jolanda de Colò",
      "address": "Via Primo Maggio, 21",
      "city": "Palmanova",
      "lat": "45.9092500000000",
      "lng": "13.2892389000000",
      "type": "95",
      "phone": "0432920321"
   },
   {
      "id": "13719",
      "name": "Parovel Vigneti Oliveti 1898",
      "address": "",
      "city": "San Dorligo della Valle",
      "lat": "45.6104286000000",
      "lng": "13.8484956000000",
      "type": "95",
      "phone": "3467590953"
   },
   {
      "id": "3600",
      "name": "Pasticceria Penso",
      "address": "Via Diaz 11",
      "city": "Trieste",
      "lat": "45.6483600000000",
      "lng": "13.7654600000000",
      "type": "95",
      "phone": "040301530"
   },
   {
      "id": "14978",
      "name": "Sapori Eccellenti del Territorio",
      "address": "Via di Cavana 13/a",
      "city": "Trieste",
      "lat": "45.6474920000000",
      "lng": "13.7658210000000",
      "type": "95",
      "phone": "0402471080"
   },
   {
      "id": "15470",
      "name": "Rado Kocjancic",
      "address": "Località Crogole, 11",
      "city": "San Dorligo della Valle",
      "lat": "45.6039985000000",
      "lng": "13.8529046000000",
      "type": "95",
      "phone": ""
   },
   {
      "id": "7528",
      "name": "Foglie d´Erba",
      "address": "Via Nazionale",
      "city": "Forni di Sopra",
      "lat": "46.4112070000000",
      "lng": "12.5883679000000",
      "type": "95",
      "phone": "347 3555197"
   },
   {
      "id": "4183",
      "name": "Azienda Agricola Bosco Isonzo",
      "address": "Via Isonzo, 74",
      "city": "Fiumicello",
      "lat": "45.7956820000000",
      "lng": "13.4277020000000",
      "type": "95",
      "phone": "0431969379"
   },
   {
      "id": "8887",
      "name": "Bier",
      "address": "Via Roma, 1",
      "city": "Meduno",
      "lat": "46.2167934000000",
      "lng": "12.7858780000000",
      "type": "95",
      "phone": "042786189"
   },
   {
      "id": "9365",
      "name": "Gran Gelato",
      "address": "Via Udine, 47",
      "city": "Cervignano del Friuli",
      "lat": "45.8292955000000",
      "lng": "13.3329930000000",
      "type": "95",
      "phone": "0431 34923"
   },
   {
      "id": "4181",
      "name": "Mercato delle Terre di Aquileia",
      "address": "Piazza Indipendenza",
      "city": "Cervignano del Friuli",
      "lat": "45.8234377000000",
      "lng": "13.3352030000000",
      "type": "95",
      "phone": ""
   },
   {
      "id": "11186",
      "name": "Mercato della Terra di Cervignano del Friuli",
      "address": "Piazza Indipendenza",
      "city": "Cervignano del Friuli",
      "lat": "45.8234377000000",
      "lng": "13.3330143000000",
      "type": "95",
      "phone": "+39 338 5758021"
   },
   {
      "id": "13987",
      "name": "Azienda Agricola Nives Francescon",
      "address": "Via Armando Diaz 40",
      "city": "Cavasso Nuovo",
      "lat": "46.2022327000000",
      "lng": "12.7755323000000",
      "type": "95",
      "phone": "042777448"
   },
   {
      "id": "7505",
      "name": "La Birra di Meni",
      "address": "Via Sirivella",
      "city": "Cavasso Nuovo",
      "lat": "46.1948832000000",
      "lng": "12.7773845000000",
      "type": "95",
      "phone": "0427 77028"
   },
   {
      "id": "15469",
      "name": "Lenardon",
      "address": "Località Pisciolon, 37",
      "city": "Muggia",
      "lat": "45.5968041000000",
      "lng": "13.7544483000000",
      "type": "95",
      "phone": "040 275020"
   },
   {
      "id": "8379",
      "name": "Aquileia",
      "address": "Via Julia Augusta, 87 A",
      "city": "Aquileia",
      "lat": "45.7830643000000",
      "lng": "13.3603448000000",
      "type": "95",
      "phone": "0431 91091"
   },
   {
      "id": "10926",
      "name": "Latteria Turnaria di Campolessi",
      "address": "Via San Marco, 7",
      "city": "Gemona del Friuli",
      "lat": "45.8610290000000",
      "lng": "13.2220840000000",
      "type": "95",
      "phone": "347 3027668"
   },
   {
      "id": "14182",
      "name": "Panificio Pasticceria Da Vià",
      "address": "P.za dei Martiri",
      "city": "",
      "lat": "46.4589238000000",
      "lng": "12.4163616000000",
      "type": "95",
      "phone": "0435 72035"
   },
   {
      "id": "14121",
      "name": "La Lioda - società cooperativa agricola e forestale",
      "address": "Via Padova",
      "city": "Calalzo di Cadore",
      "lat": "46.4490838000000",
      "lng": "12.3780489000000",
      "type": "95",
      "phone": "0435 501563"
   },
   {
      "id": "4182",
      "name": "Sorgente del Gusto",
      "address": "Via Piave, 2",
      "city": "Sterpo di Bertiolo",
      "lat": "45.9048086000000",
      "lng": "13.0502651000000",
      "type": "95",
      "phone": "0432917093"
   },
   {
      "id": "4157",
      "name": "Tenuta Zarnic",
      "address": "Via Isernicco, 16",
      "city": "Udine",
      "lat": "45.8857269000000",
      "lng": "13.0692778000000",
      "type": "95",
      "phone": "3452759303"
   },
   {
      "id": "14180",
      "name": "Casa del dolce",
      "address": "Via Nazionale",
      "city": "Pieve di Cadore",
      "lat": "46.4285489000000",
      "lng": "12.3743451000000",
      "type": "95",
      "phone": "0435 32274"
   },
   {
      "id": "15800",
      "name": "Agro",
      "address": "Via della Centrale",
      "city": "Aviano",
      "lat": "46.1216200000000",
      "lng": "12.6192400000000",
      "type": "95",
      "phone": "339 1398900"
   },
   {
      "id": "3709",
      "name": "Distilleria Pagura",
      "address": "Via Favetti 25",
      "city": "Castions di Zoppola",
      "lat": "45.9730269000000",
      "lng": "12.8037714000000",
      "type": "95",
      "phone": "043497021"
   },
   {
      "id": "2066",
      "name": "Caseificio Piccolo Brite",
      "address": "Località Alverà",
      "city": "Alverà di Cortina d'Ampezzo",
      "lat": "46.5442039000000",
      "lng": "12.1497139000000",
      "type": "95",
      "phone": "0436868641"
   },
   {
      "id": "14269",
      "name": "Arnese e Rossi Mel",
      "address": "Via Cesare Battisti",
      "city": "San Quirino",
      "lat": "46.0502449000000",
      "lng": "12.6693250000000",
      "type": "95",
      "phone": "3496103158"
   },
   {
      "id": "14092",
      "name": "Az. agr. Talamini De La Tela",
      "address": "Via Chiarediego",
      "city": "Vodo di Cadore",
      "lat": "46.4171000000000",
      "lng": "12.2468100000000",
      "type": "95",
      "phone": "347 755 1572"
   },
   {
      "id": "11233",
      "name": "Macelleria Vicenzutto",
      "address": "Viale Della Repubblica 48",
      "city": "Fiume Veneto",
      "lat": "45.9311716000000",
      "lng": "12.7289893000000",
      "type": "95",
      "phone": "0434959258"
   },
   {
      "id": "7837",
      "name": "Galassia",
      "address": "Via Mameli",
      "city": "Pordenone",
      "lat": "45.9631610000000",
      "lng": "12.6686290000000",
      "type": "95",
      "phone": "320 0898989"
   },
   {
      "id": "14123",
      "name": "Az. Agr. Calvi Lisa",
      "address": "Via Mussera",
      "city": "Chies D'Alpago",
      "lat": "46.1853500000000",
      "lng": "12.3859300000000",
      "type": "95",
      "phone": "3494531044"
   },
   {
      "id": "11506",
      "name": "Libreria al Segno",
      "address": "Vicolo Del Forno 2",
      "city": "Pordenone",
      "lat": "45.9563416000000",
      "lng": "12.6604512000000",
      "type": "95",
      "phone": "0434520506"
   },
   {
      "id": "9988",
      "name": "Cioccolateria Peratoner",
      "address": "Corso Vittorio Emanuele, 22 B",
      "city": "Pordenone",
      "lat": "45.9570328000000",
      "lng": "12.6593365000000",
      "type": "95",
      "phone": "0434520014"
   },
   {
      "id": "14148",
      "name": "Fardjma",
      "address": "Via della Conciliazione",
      "city": "Chies d'Alpago",
      "lat": "46.1726699000000",
      "lng": "12.3850600000000",
      "type": "95",
      "phone": "3346006857"
   },
   {
      "id": "10575",
      "name": "L'Orto in Città",
      "address": "Via Grandi, 2",
      "city": "Pordenone",
      "lat": "45.9448516000000",
      "lng": "12.6628877000000",
      "type": "95",
      "phone": "0434598191"
   },
   {
      "id": "14122",
      "name": "Agriturismo la Sloda",
      "address": "Via S. Andrea",
      "city": "Val di Zoldo",
      "lat": "46.3438161000000",
      "lng": "12.1596689000000",
      "type": "95",
      "phone": "328 842 0433"
   },
   {
      "id": "1856",
      "name": "Azienda Agricola Bortoluzzi",
      "address": "Località Nusieda",
      "city": "Nusieda di Pieve d'Alpago",
      "lat": "46.1436039000000",
      "lng": "12.3449542000000",
      "type": "95",
      "phone": ""
   },
   {
      "id": "3740",
      "name": "Pasticceria Centeleghe",
      "address": "Via Matteotti, 30",
      "city": "Farra d'Alpago",
      "lat": "46.1222569000000",
      "lng": "12.3574557000000",
      "type": "95",
      "phone": "0437451194"
   },
   {
      "id": "1835",
      "name": "La Giasena",
      "address": "Via Frazione Vich, 58",
      "city": "Vich di Ponte nelle Alpi",
      "lat": "46.1535481000000",
      "lng": "12.3094434000000",
      "type": "95",
      "phone": ""
   },
   {
      "id": "3706",
      "name": "Consorzio Figo Moro",
      "address": "Via Luigi Cadorna, 7",
      "city": "Caneva",
      "lat": "45.9838732000000",
      "lng": "12.4763066000000",
      "type": "95",
      "phone": "3332399111"
   },
   {
      "id": "11505",
      "name": "Libreria al Segno",
      "address": "Piazza Campo Marzio 27",
      "city": "Sacile",
      "lat": "45.9525857000000",
      "lng": "12.5005761000000",
      "type": "95",
      "phone": "0434781693"
   },
   {
      "id": "14055",
      "name": "Officine - La Fabbrica del Buon Gusto",
      "address": "Via Fiorenzo Tomea",
      "city": "Belluno",
      "lat": "46.1598957000000",
      "lng": "12.2363997000000",
      "type": "95",
      "phone": "0437 925477"
   },
   {
      "id": "14090",
      "name": "Panificio Bertagno",
      "address": "Via Vittorio Veneto",
      "city": "Belluno",
      "lat": "46.1500320000000",
      "lng": "12.2280505000000",
      "type": "95",
      "phone": "0437 380757"
   },
   {
      "id": "14064",
      "name": "Latteria Di Tisoi - negozio di Belluno",
      "address": "Via Vittorio Veneto",
      "city": "Belluno",
      "lat": "46.1463718000000",
      "lng": "12.2235999000000",
      "type": "95",
      "phone": "392 636 2601"
   },
   {
      "id": "14126",
      "name": "Il Cantiere del Gusto",
      "address": "Via Vittorio Veneto",
      "city": "Belluno",
      "lat": "46.1456547000000",
      "lng": "12.2225301000000",
      "type": "95",
      "phone": "0437 177 0048"
   },
   {
      "id": "14089",
      "name": "Drogheria David",
      "address": "Via Mezzaterra",
      "city": "Belluno",
      "lat": "46.1385940000000",
      "lng": "12.2184634000000",
      "type": "95",
      "phone": "0437 184 7582"
   },
   {
      "id": "14065",
      "name": "Bottega Manolli",
      "address": "Piazza Giorgio Piloni",
      "city": "Belluno",
      "lat": "46.1406100000000",
      "lng": "12.2158200000000",
      "type": "95",
      "phone": "328 871 8083"
   },
   {
      "id": "14083",
      "name": "La Cocotte - torteria e scuola di cucina",
      "address": "Via Mezzaterra",
      "city": "Belluno",
      "lat": "46.1375671000000",
      "lng": "12.2189003000000",
      "type": "95",
      "phone": "347 167 0982"
   },
   {
      "id": "14067",
      "name": "Il Paiolo",
      "address": "Via Feltre",
      "city": "Belluno",
      "lat": "46.1376798000000",
      "lng": "12.2050457000000",
      "type": "95",
      "phone": "0437 940472"
   },
   {
      "id": "1863",
      "name": "Latteria di Tisoi",
      "address": "Via Da Tisoi, 24",
      "city": "Belluno",
      "lat": "46.1632600000000",
      "lng": "12.1686200000000",
      "type": "95",
      "phone": "0437294422"
   },
   {
      "id": "7901",
      "name": "Köstlan",
      "address": "Via Ignaz Seidner",
      "city": "Bressanone-Brixen",
      "lat": "46.7115000000000",
      "lng": "11.6643000000000",
      "type": "95",
      "phone": "0472 920845"
   },
   {
      "id": "12565",
      "name": "Crai di Scarton",
      "address": "Via Visome, 130",
      "city": "Belluno",
      "lat": "46.1155376000000",
      "lng": "12.2013540000000",
      "type": "95",
      "phone": "437926432"
   },
   {
      "id": "2002",
      "name": "La Schirata",
      "address": "Località Valpiana, 34",
      "city": "Limana",
      "lat": "46.0778820000000",
      "lng": "12.2191990000000",
      "type": "95",
      "phone": "3398180741"
   },
   {
      "id": "7643",
      "name": "Bradipongo",
      "address": "Via Pin delle Portelle",
      "city": "Colle Umberto",
      "lat": "45.9549930000000",
      "lng": "12.3630590000000",
      "type": "95",
      "phone": "0438 394992"
   },
   {
      "id": "12564",
      "name": "Negozio  Bio &quot;Da Giusi&quot;",
      "address": "Via Roma, 4",
      "city": "Limana",
      "lat": "46.1002022000000",
      "lng": "12.1866598000000",
      "type": "95",
      "phone": "3331166280"
   },
   {
      "id": "14054",
      "name": "Coop. San Damiano Alle Case Nice",
      "address": "Via Valpiana",
      "city": "",
      "lat": "46.0726007000000",
      "lng": "12.2146419000000",
      "type": "95",
      "phone": "3296746555"
   },
   {
      "id": "2014",
      "name": "Le Zercole",
      "address": "Via Canal di Limana",
      "city": "Trichiana",
      "lat": "46.0429817000000",
      "lng": "12.2150933000000",
      "type": "95",
      "phone": "0437970217"
   },
   {
      "id": "1936",
      "name": "Latteria di Camolino",
      "address": "Via Camolino, 131",
      "city": "Sospirolo",
      "lat": "46.1464400000000",
      "lng": "12.0858000000000",
      "type": "95",
      "phone": "043789228"
   },
   {
      "id": "7724",
      "name": "Gasslbräu",
      "address": "Via Conciatori",
      "city": "Chiusa",
      "lat": "46.6398370000000",
      "lng": "11.5645130000000",
      "type": "95",
      "phone": "0472 523623"
   },
   {
      "id": "1795",
      "name": "PER - Percorsi Enogastronomici di Ricerca",
      "address": "Via Cervano, 77D",
      "city": "Bagnolo San Pietro di Feletto",
      "lat": "45.9064384000000",
      "lng": "12.2812263000000",
      "type": "95",
      "phone": "043834874"
   },
   {
      "id": "8512",
      "name": "Mondragon",
      "address": "Località ArfantaVia Mondragon, 1",
      "city": "Tarzo",
      "lat": "45.9571006000000",
      "lng": "12.2079983000000",
      "type": "95",
      "phone": "0438 933021"
   },
   {
      "id": "3924",
      "name": "Mondragon",
      "address": "Località Arfanta - Via Mondragon, 1",
      "city": "Tarzo",
      "lat": "45.9571006000000",
      "lng": "12.2079983000000",
      "type": "95",
      "phone": "0438933021"
   },
   {
      "id": "14125",
      "name": "Deola dolci biologici",
      "address": "Via Tiago",
      "city": "Borgo Valbelluna",
      "lat": "46.0400400000000",
      "lng": "12.0743500000000",
      "type": "95",
      "phone": "0437 747199"
   },
   {
      "id": "13250",
      "name": "Latteria di Lentiai Soc. Coop. Agricola",
      "address": "Via Dei Martiri",
      "city": "Borgo Valbelluna",
      "lat": "46.0459455000000",
      "lng": "12.0259514000000",
      "type": "95",
      "phone": "0437 750584"
   },
   {
      "id": "10065",
      "name": "Luciano Solagna",
      "address": "Località Pez Via Galoper, 39",
      "city": "Cesiomaggiore",
      "lat": "46.0610087000000",
      "lng": "11.9871191000000",
      "type": "95",
      "phone": "0439 390083-335 8423018"
   },
   {
      "id": "5356",
      "name": "Luciano Solagna",
      "address": "Località Pez -  Via Galoper, 39",
      "city": "Cesiomaggiore",
      "lat": "46.0610087000000",
      "lng": "11.9871191000000",
      "type": "95",
      "phone": "0439390083"
   },
   {
      "id": "1847",
      "name": "Borgoluce",
      "address": "Località Musile, 2",
      "city": "Susegana",
      "lat": "45.8395100000000",
      "lng": "12.2490900000000",
      "type": "95",
      "phone": "0438435287"
   },
   {
      "id": "13249",
      "name": "Bar Bianco",
      "address": "Via Nazionale",
      "city": "Cesiomaggiore",
      "lat": "46.0404472000000",
      "lng": "11.9836537000000",
      "type": "95",
      "phone": "0439 319352"
   },
   {
      "id": "13248",
      "name": "VALCARNE COOP. FELTRINA SAN VITTORE",
      "address": "Via Nazionale",
      "city": "Cesiomaggiore",
      "lat": "46.0405535000000",
      "lng": "11.9832761000000",
      "type": "95",
      "phone": "0439 391135"
   },
   {
      "id": "3919",
      "name": "La Fiorita",
      "address": "Bicigrill - Località Busche",
      "city": "Cesiomaggiore",
      "lat": "46.0388630000000",
      "lng": "11.9828766000000",
      "type": "95",
      "phone": "0439391477"
   },
   {
      "id": "9780",
      "name": "La Fiorita",
      "address": "c/o BicigrillLocalità Busche",
      "city": "Cesiomaggiore",
      "lat": "46.0388630000000",
      "lng": "11.9828766000000",
      "type": "95",
      "phone": "0439 391477-320 6036403"
   },
   {
      "id": "13316",
      "name": "Gelateria Pasticceria Ciottolateria Da Stefano",
      "address": "Via Roma, 5",
      "city": "Maserada sul Piave",
      "lat": "45.7530500000000",
      "lng": "12.3147000000000",
      "type": "95",
      "phone": "0422 157 3468"
   },
   {
      "id": "12907",
      "name": "Azienda Agricola Colle Elisa",
      "address": "Fraz. Stabie",
      "city": "Borgo Valbelluna",
      "lat": "46.0122861000000",
      "lng": "11.9916677000000",
      "type": "95",
      "phone": "04371680165"
   },
   {
      "id": "13748",
      "name": "Caseificio Primiero",
      "address": "Via Roma",
      "city": "Mezzano",
      "lat": "46.1559635000000",
      "lng": "11.8140452000000",
      "type": "95",
      "phone": "0439765616"
   },
   {
      "id": "13693",
      "name": "Soc. agricola Gestialpestri s.s.",
      "address": "Via Palughe",
      "city": "Feltre",
      "lat": "46.0602356000000",
      "lng": "11.9125107000000",
      "type": "95",
      "phone": "3295403969"
   },
   {
      "id": "13324",
      "name": "Colonia Agricola Bottega del Biologico",
      "address": "Via Cardinal Callegari, 32",
      "city": "Carbonera",
      "lat": "45.7208600000000",
      "lng": "12.3015000000000",
      "type": "95",
      "phone": "0422 350597"
   },
   {
      "id": "12906",
      "name": "La Costruzione di un sogno-Coop. Sociale Dumia",
      "address": "Via Volturno",
      "city": "Feltre",
      "lat": "46.0232000000000",
      "lng": "11.9220013000000",
      "type": "95",
      "phone": "043983608"
   },
   {
      "id": "5348",
      "name": "El Puner",
      "address": "Via Feltrina, 22",
      "city": "Feltre",
      "lat": "46.0080147000000",
      "lng": "11.9325950000000",
      "type": "95",
      "phone": "043989469"
   },
   {
      "id": "10835",
      "name": "El Puner",
      "address": "Via Feltrina, 22",
      "city": "Feltre",
      "lat": "46.0080147000000",
      "lng": "11.9325950000000",
      "type": "95",
      "phone": "0439 89469-389 4224864"
   },
   {
      "id": "10573",
      "name": "Nonno Andrea",
      "address": "Via Campagnola, 72 B",
      "city": "Villorba",
      "lat": "45.7609118000000",
      "lng": "12.2319023000000",
      "type": "95",
      "phone": "347 2509970"
   },
   {
      "id": "12910",
      "name": "Pastificio Feltrino Casalingo",
      "address": "Piazzale T. Parmeggiani",
      "city": "Feltre",
      "lat": "46.0214800000000",
      "lng": "11.9088013000000",
      "type": "95",
      "phone": "043989229"
   },
   {
      "id": "12905",
      "name": "Agorà Libreria Editrice",
      "address": "Via Garibaldi",
      "city": "Feltre",
      "lat": "46.0161440000000",
      "lng": "11.9043143000000",
      "type": "95",
      "phone": "0439 83487"
   },
   {
      "id": "12867",
      "name": "La Bottega Dolomitica",
      "address": "Via Risorgimento",
      "city": "Pedavena",
      "lat": "46.0320032000000",
      "lng": "11.8856612000000",
      "type": "95",
      "phone": "0439396480"
   },
   {
      "id": "11052",
      "name": "Campo dei Grilli",
      "address": "Via Pentia, 19 A",
      "city": "Roncade",
      "lat": "45.6183833000000",
      "lng": "12.3724066000000",
      "type": "95",
      "phone": "339 3580667"
   },
   {
      "id": "9705",
      "name": "La Perla",
      "address": "Via Marcolin, 1",
      "city": "Ponzano Veneto",
      "lat": "45.7330244000000",
      "lng": "12.2145611000000",
      "type": "95",
      "phone": "0422 968016"
   },
   {
      "id": "13315",
      "name": "Az. Agr. Rubinato Carlotta",
      "address": "Via Trento Trieste, 69",
      "city": "Roncade",
      "lat": "45.6146500000000",
      "lng": "12.3652500000000",
      "type": "95",
      "phone": "347/9497134"
   },
   {
      "id": "12706",
      "name": "Il Piacere della Carne",
      "address": "Piazza Europa, 14",
      "city": "Silea",
      "lat": "45.6536243000000",
      "lng": "12.2944997000000",
      "type": "95",
      "phone": "3397884074"
   },
   {
      "id": "9476",
      "name": "Luigi Bottacin",
      "address": "Viale Bixio, 21 B",
      "city": "Treviso",
      "lat": "45.6698266000000",
      "lng": "12.2546220000000",
      "type": "95",
      "phone": "0422 301841"
   },
   {
      "id": "7673",
      "name": "Batzen",
      "address": "Via Andreas Hofer",
      "city": "Bolzano-Bozen",
      "lat": "46.5013383000000",
      "lng": "11.3574074000000",
      "type": "95",
      "phone": "0471 050950"
   },
   {
      "id": "4590",
      "name": "Officina del Gelo Avalon",
      "address": "Corso della Libertà, 44",
      "city": "Bolzano",
      "lat": "46.5015801000000",
      "lng": "11.3408659000000",
      "type": "95",
      "phone": "0471260434"
   },
   {
      "id": "14694",
      "name": "Vini alla Pari",
      "address": "via Roma 49/L",
      "city": "Casier",
      "lat": "45.6354190000000",
      "lng": "12.2500500000000",
      "type": "95",
      "phone": "3382794367"
   },
   {
      "id": "11014",
      "name": "Pescotteria di Valentino Zago",
      "address": "Località Frescada Via Terraglio, 69",
      "city": "Preganziol",
      "lat": "45.6395044000000",
      "lng": "12.2409272000000",
      "type": "95",
      "phone": ""
   },
   {
      "id": "13313",
      "name": "Boschetto di Campagna",
      "address": "Via Pralonghi, 6",
      "city": "Paese",
      "lat": "45.6973000000000",
      "lng": "12.1628700000000",
      "type": "95",
      "phone": "+39 349 729 9979"
   },
   {
      "id": "12496",
      "name": "Amo'",
      "address": "Via Milano, 17",
      "city": "Bolzano",
      "lat": "46.4899586000000",
      "lng": "11.3357163000000",
      "type": "95",
      "phone": "04711894285"
   },
   {
      "id": "12697",
      "name": "Le Coccinelle",
      "address": "Via Bomisiolo, 7",
      "city": "Mogliano Veneto",
      "lat": "45.5851575000000",
      "lng": "12.2879587000000",
      "type": "95",
      "phone": "371 442 9602"
   },
   {
      "id": "11094",
      "name": "Biscotteria Bettina",
      "address": "Via Terraglio, 247/2",
      "city": "Preganziol",
      "lat": "45.6160217000000",
      "lng": "12.2387209000000",
      "type": "95",
      "phone": "0422 1727897"
   },
   {
      "id": "14976",
      "name": "Fattoria Rio Selva",
      "address": "Via Rio Serva, 13",
      "city": "Preganziol",
      "lat": "45.5866060628056",
      "lng": "12.2605700000000",
      "type": "95",
      "phone": "0422330477"
   },
   {
      "id": "12895",
      "name": "Latteria Formaggi e Salumi Birello Paride",
      "address": "Viale S. Marco, 68",
      "city": "Marcon",
      "lat": "45.5595650000000",
      "lng": "12.2989590000000",
      "type": "95",
      "phone": "041 456 8590"
   },
   {
      "id": "7504",
      "name": "Birra di Fiemme",
      "address": "Località Toi",
      "city": "Cavalese",
      "lat": "46.3035240000000",
      "lng": "11.4504665000000",
      "type": "95",
      "phone": "0462 479147"
   },
   {
      "id": "9363",
      "name": "Gast Campilonghi",
      "address": "Località Campilonghi Via Zapparè",
      "city": "Montebelluna",
      "lat": "45.7364820000000",
      "lng": "12.0424727000000",
      "type": "95",
      "phone": "348 8056803-340 8994325"
   },
   {
      "id": "8979",
      "name": "Tre Comuni",
      "address": "Via Tre Comuni, 2 A",
      "city": "Istrana",
      "lat": "45.7095876000000",
      "lng": "12.0748238000000",
      "type": "95",
      "phone": "0422 832133"
   },
   {
      "id": "9652",
      "name": "Il Rosmarino",
      "address": "Via Pialoi, 68 B",
      "city": "Marcon",
      "lat": "45.5469969000000",
      "lng": "12.2858412000000",
      "type": "95",
      "phone": "320 043 7153"
   },
   {
      "id": "9441",
      "name": "Ragazzo",
      "address": "Via Ronzinella, 115",
      "city": "Mogliano Veneto",
      "lat": "45.5536582000000",
      "lng": "12.2657982000000",
      "type": "95",
      "phone": "041 433973"
   },
   {
      "id": "10619",
      "name": "Troticoltura S. Cristina",
      "address": "Via Chiesa Vecchia, 14",
      "city": "Quinto di Treviso",
      "lat": "45.6423275000000",
      "lng": "12.1417013000000",
      "type": "95",
      "phone": "0422 379142"
   },
   {
      "id": "2107",
      "name": "Troticoltura Santa Cristina",
      "address": "Via Chiesa Vecchia, 14",
      "city": "Quinto di Treviso",
      "lat": "45.6423275000000",
      "lng": "12.1417013000000",
      "type": "95",
      "phone": "0422379142"
   },
   {
      "id": "12897",
      "name": "Macelleria Salumeria Fratelli Mazzaro",
      "address": "Via Zermanesa, 50",
      "city": "Mogliano Veneto",
      "lat": "45.5616270000000",
      "lng": "12.2457340000000",
      "type": "95",
      "phone": "041 590 2282"
   },
   {
      "id": "12896",
      "name": "Ca' Donadel",
      "address": "Via del Molino, 25",
      "city": "Mogliano Veneto",
      "lat": "45.5818340000000",
      "lng": "12.2163730000000",
      "type": "95",
      "phone": "331 866 3646"
   },
   {
      "id": "15472",
      "name": "I Due Fratelli Botter",
      "address": "Via Collalto, 8",
      "city": "Asolo",
      "lat": "45.8021900000000",
      "lng": "11.9201300000000",
      "type": "95",
      "phone": ""
   },
   {
      "id": "7553",
      "name": "Pfefferlechner",
      "address": "Via San Martino",
      "city": "Lana",
      "lat": "46.6154930000000",
      "lng": "11.1505650000000",
      "type": "95",
      "phone": "0473 562521"
   },
   {
      "id": "8501",
      "name": "I Sapori di Sant'Erasmo",
      "address": "Isola di Sant'Erasmo Boaria Vecia, 6",
      "city": "Venezia",
      "lat": "45.4514141000000",
      "lng": "12.3934884000000",
      "type": "95",
      "phone": "347 0594687"
   },
   {
      "id": "9782",
      "name": "Attilio e Francesco De Panni",
      "address": "Via Signoria, 20",
      "city": "Fonte",
      "lat": "45.8111759000000",
      "lng": "11.8559080000000",
      "type": "95",
      "phone": "0423 946263"
   },
   {
      "id": "12901",
      "name": "Azienda Agricola Checchin Luca",
      "address": "Via Gatta, 57",
      "city": "Venezia",
      "lat": "45.5370200000000",
      "lng": "12.2023980000000",
      "type": "95",
      "phone": "348 602 9583"
   },
   {
      "id": "2087",
      "name": "Macelleria Fedalto Cesare",
      "address": "Via Caneve, 16",
      "city": "Venezia Mestre",
      "lat": "45.4958417000000",
      "lng": "12.2452665000000",
      "type": "95",
      "phone": "041931705"
   },
   {
      "id": "1776",
      "name": "Aliani, Casa del Parmigiano",
      "address": "San Polo, 214",
      "city": "Venezia",
      "lat": "45.4376436000000",
      "lng": "12.3290729000000",
      "type": "95",
      "phone": "0415206525"
   },
   {
      "id": "1769",
      "name": "Antica Drogheria Caberlotto",
      "address": "Piazza Ferretto, 65",
      "city": "Venezia Mestre",
      "lat": "45.4935265000000",
      "lng": "12.2412989000000",
      "type": "95",
      "phone": "041961532"
   },
   {
      "id": "8684",
      "name": "Andrea e Paolo Dalla Palma",
      "address": "Località Val Maron Malga I Lotto Valmaron Stazio",
      "city": "Enego",
      "lat": "45.9529180000000",
      "lng": "11.6407090000000",
      "type": "95",
      "phone": "0424 490033-348 3647129"
   },
   {
      "id": "8868",
      "name": "Lorenzo Tognon",
      "address": "Malga II Lotto Marcesine",
      "city": "Enego",
      "lat": "45.9475732000000",
      "lng": "11.6392576000000",
      "type": "95",
      "phone": "0424 490732-333 8008559"
   },
   {
      "id": "3953",
      "name": "Andrea e Paolo Dalla Palma",
      "address": "Località Val Maron - Malga I Lotto Valmaron Stazio",
      "city": "Enego",
      "lat": "45.9475732000000",
      "lng": "11.6392576000000",
      "type": "95",
      "phone": "0424490033"
   },
   {
      "id": "3958",
      "name": "Ivan Andreatta",
      "address": "Malga Gasparini - Via Campo del Roa, 4",
      "city": "Solagna",
      "lat": "45.8630118000000",
      "lng": "11.7109584000000",
      "type": "95",
      "phone": "3209107277"
   },
   {
      "id": "9951",
      "name": "Ivan Andreatta",
      "address": "Malga GaspariniVia Campo del Roa, 4",
      "city": "Solagna",
      "lat": "45.8630118000000",
      "lng": "11.7109584000000",
      "type": "95",
      "phone": "320 9107277"
   },
   {
      "id": "15805",
      "name": "Evoqe Brewing",
      "address": "Via Castellana",
      "city": "Trebaseleghe",
      "lat": "45.5948580000000",
      "lng": "12.0395830000000",
      "type": "95",
      "phone": "334 9985458"
   },
   {
      "id": "9767",
      "name": "Zorzi",
      "address": "Borgo Treviso, 26",
      "city": "Castelfranco Veneto",
      "lat": "45.6719024000000",
      "lng": "11.9308760000000",
      "type": "95",
      "phone": "0423 494198"
   },
   {
      "id": "10684",
      "name": "Dolciaria Fraccaro",
      "address": "Circonvallazione Ovest, 25-27",
      "city": "Castelfranco Veneto",
      "lat": "45.6783497000000",
      "lng": "11.9162014000000",
      "type": "95",
      "phone": "0423 491421"
   },
   {
      "id": "1719",
      "name": "La Gusteria",
      "address": "Via Monte Grappa, 42",
      "city": "Salzano",
      "lat": "45.5241711000000",
      "lng": "12.1094317000000",
      "type": "95",
      "phone": "041437980"
   },
   {
      "id": "8701",
      "name": "Hausmann-Rizzetti",
      "address": "Via San Giorgio, 105",
      "city": "Castelfranco Veneto",
      "lat": "45.6561896000000",
      "lng": "11.9280531000000",
      "type": "95",
      "phone": "0423 494219"
   },
   {
      "id": "3925",
      "name": "Hausmann-Rizzetti",
      "address": "Via San Giorgio, 105",
      "city": "Castelfranco Veneto",
      "lat": "45.6561896000000",
      "lng": "11.9280531000000",
      "type": "95",
      "phone": "0423494219"
   },
   {
      "id": "12759",
      "name": "Renato DEPIERI",
      "address": "Via Alcide de Gasperi",
      "city": "Salzano (VE)",
      "lat": "45.5209830000000",
      "lng": "12.1082980000000",
      "type": "95",
      "phone": "041 437234"
   },
   {
      "id": "10492",
      "name": "Enoiteca Pomodoro",
      "address": "Viale Europa, 3",
      "city": "Romano d'Ezzelino",
      "lat": "45.7764763000000",
      "lng": "11.7561315000000",
      "type": "95",
      "phone": "0424 33441"
   },
   {
      "id": "12698",
      "name": "Le Coccinelle",
      "address": "Viale Venezia, 1",
      "city": "Mirano",
      "lat": "45.4815660000000",
      "lng": "12.1024382000000",
      "type": "95",
      "phone": "3505989851"
   },
   {
      "id": "9872",
      "name": "Gambato Importazione Caffè",
      "address": "Via Caltana, 14",
      "city": "Mirano",
      "lat": "45.4734683000000",
      "lng": "12.1044600000000",
      "type": "95",
      "phone": "041 436032"
   },
   {
      "id": "13314",
      "name": "Mulino Terrevive",
      "address": "Via Mottinello, 145",
      "city": "Rossano Veneto",
      "lat": "45.6862400000000",
      "lng": "11.8144400000000",
      "type": "95",
      "phone": "+39 327 633 6055"
   },
   {
      "id": "15473",
      "name": "Vigneto Due Santi",
      "address": "Viale Asiago, 174",
      "city": "Bassano del Grappa",
      "lat": "45.7712000000000",
      "lng": "11.7064000000000",
      "type": "95",
      "phone": "0424 502074"
   },
   {
      "id": "1727",
      "name": "Pescheria da Sandra o Cà Marina",
      "address": "Riviera Silvio Trentin, 14",
      "city": "Mira",
      "lat": "45.4341402000000",
      "lng": "12.1310194000000",
      "type": "95",
      "phone": "041422421"
   },
   {
      "id": "10675",
      "name": "Maurizio Cortese",
      "address": "Malga Verde Località Val Lastaro",
      "city": "Conco",
      "lat": "45.8174241000000",
      "lng": "11.6365105000000",
      "type": "95",
      "phone": "0424 407220"
   },
   {
      "id": "3938",
      "name": "Maurizio Cortese",
      "address": "Malga Verde - Località Val Lastaro",
      "city": "Conco",
      "lat": "45.8174241000000",
      "lng": "11.6365105000000",
      "type": "95",
      "phone": "0424407220"
   },
   {
      "id": "11012",
      "name": "Capovilla",
      "address": "Via Giardini, 12",
      "city": "Rosà",
      "lat": "45.7208990000000",
      "lng": "11.7478459000000",
      "type": "95",
      "phone": "0424 581222"
   },
   {
      "id": "9985",
      "name": "Papaveri e Papere",
      "address": "Via Caltana, 1 B",
      "city": "Santa Maria di Sala",
      "lat": "45.4761145000000",
      "lng": "12.0461767000000",
      "type": "95",
      "phone": "041 5732462-331 6674231"
   },
   {
      "id": "1720",
      "name": "Maso Sandro",
      "address": "Via Ballò 81",
      "city": "Mirano",
      "lat": "45.4595062000000",
      "lng": "12.0676398000000",
      "type": "95",
      "phone": "041436910"
   },
   {
      "id": "12783",
      "name": "Azienda Agricola Cacco Mattia",
      "address": "Via Ettore Tito 22",
      "city": "Dolo",
      "lat": "45.4260390000000",
      "lng": "12.1018700000000",
      "type": "95",
      "phone": "3496027256"
   },
   {
      "id": "8487",
      "name": "Torronificio Scaldaferro",
      "address": "Via Ca' Tron, 31",
      "city": "Dolo",
      "lat": "45.4273402000000",
      "lng": "12.0861254000000",
      "type": "95",
      "phone": "041 410467"
   },
   {
      "id": "10399",
      "name": "Caseificio Sociale Pennar",
      "address": "Via Pennar, 32",
      "city": "Asiago",
      "lat": "45.8631505000000",
      "lng": "11.5357586000000",
      "type": "95",
      "phone": "0424 462374"
   },
   {
      "id": "9362",
      "name": "Famiglia Gastaldello dal 1969",
      "address": "Piazza Castello, 25",
      "city": "Marostica",
      "lat": "45.7457984000000",
      "lng": "11.6551472000000",
      "type": "95",
      "phone": "0424 75071"
   },
   {
      "id": "2099",
      "name": "Casa del Parmigiano – Famiglia Gastaldello",
      "address": "Piazza Castello, 25",
      "city": "Marostica",
      "lat": "45.7457984000000",
      "lng": "11.6551472000000",
      "type": "95",
      "phone": "042475071"
   },
   {
      "id": "14084",
      "name": "Fattoria Cortese",
      "address": "Via Rovera",
      "city": "Lusiana Conco",
      "lat": "45.7925549000000",
      "lng": "11.5928215000000",
      "type": "95",
      "phone": "0424700332"
   },
   {
      "id": "8547",
      "name": "Marisa",
      "address": "Località Arsego Via Roma, 422",
      "city": "San Giorgio delle Pertiche",
      "lat": "45.5409173000000",
      "lng": "11.8746228000000",
      "type": "95",
      "phone": "049 9330079"
   },
   {
      "id": "10069",
      "name": "Waister",
      "address": "Canove di Roana Via Cima XII, 6",
      "city": "Roana",
      "lat": "45.8628900000000",
      "lng": "11.4733300000000",
      "type": "95",
      "phone": "0424 450101-333 6172621"
   },
   {
      "id": "9937",
      "name": "Mario Basso",
      "address": "Località BressanvidoMalga Pian di Granezza",
      "city": "Lusiana",
      "lat": "45.8114253000000",
      "lng": "11.5285246000000",
      "type": "95",
      "phone": "0444 660529-368 3974635"
   },
   {
      "id": "9094",
      "name": "MalgAsiago",
      "address": "Via Toccoli, 18",
      "city": "Roana",
      "lat": "45.8713258000000",
      "lng": "11.4563901000000",
      "type": "95",
      "phone": "347 1836825"
   },
   {
      "id": "10394",
      "name": "Poli",
      "address": "Via Marconi, 46",
      "city": "Schiavon",
      "lat": "45.7019890000000",
      "lng": "11.6458390000000",
      "type": "95",
      "phone": "0444 665007"
   },
   {
      "id": "9950",
      "name": "Roberto Frigo",
      "address": "Località Canove di RoanaVia Dante, 103",
      "city": "Roana",
      "lat": "45.8607762000000",
      "lng": "11.4598474000000",
      "type": "95",
      "phone": "0424 692224-347 2382892"
   },
   {
      "id": "7718",
      "name": "Birra del Bosco",
      "address": "Via Postal",
      "city": "San Michele all´Adige",
      "lat": "46.1979900000000",
      "lng": "11.1232740000000",
      "type": "95",
      "phone": "393 9075131"
   },
   {
      "id": "1718",
      "name": "Apicoltura Fevari",
      "address": "Via Altinate 21",
      "city": "San Pietro di Stra",
      "lat": "45.4010778000000",
      "lng": "12.0150906000000",
      "type": "95",
      "phone": "049504856"
   },
   {
      "id": "14847",
      "name": "Apple blood cider",
      "address": "Maso Quadrifoglio",
      "city": "Terre d'Adige",
      "lat": "46.1747230000000",
      "lng": "11.0989630000000",
      "type": "95",
      "phone": "3485367092"
   },
   {
      "id": "15797",
      "name": "Brewpassion",
      "address": "Via Salorno",
      "city": "Trento",
      "lat": "46.1324610000000",
      "lng": "11.1122960000000",
      "type": "95",
      "phone": "0461 242035"
   },
   {
      "id": "13359",
      "name": "Trote Astro",
      "address": "via Galileo Galilei",
      "city": "Lavis",
      "lat": "46.1361593000000",
      "lng": "11.0891711000000",
      "type": "95",
      "phone": "0461 242525"
   },
   {
      "id": "14850",
      "name": "SHIRIN PERSIA di Azadkia Ala",
      "address": "Via di Melta",
      "city": "Trento",
      "lat": "46.1003510000000",
      "lng": "11.1186170000000",
      "type": "95",
      "phone": "3714963812"
   },
   {
      "id": "13408",
      "name": "Natura in vasetto",
      "address": "Fraz. Giochi 61",
      "city": "Lavarone",
      "lat": "45.9412880000000",
      "lng": "11.2707390000000",
      "type": "95",
      "phone": "347 8398503"
   },
   {
      "id": "9713",
      "name": "Caseificio degli Altipiani e del Vezzena",
      "address": "Via Marconi, 5",
      "city": "Lavarone Cappella",
      "lat": "45.9369600000000",
      "lng": "11.2744100000000",
      "type": "95",
      "phone": "0464 783106"
   },
   {
      "id": "12804",
      "name": "Fattoria Lenzi",
      "address": "Via Lenzi, 6",
      "city": "Lavarone",
      "lat": "45.9287300000000",
      "lng": "11.2727590000000",
      "type": "95",
      "phone": "349 5035985"
   },
   {
      "id": "12822",
      "name": "Pasticceria Giotto - Dal Carcere di Padova",
      "address": "Via Forcellini 172",
      "city": "Padova",
      "lat": "45.3922747000000",
      "lng": "11.9045341990000",
      "type": "95",
      "phone": "0498033100"
   },
   {
      "id": "14851",
      "name": "GAS Terre Alte",
      "address": "Via Giovanni Prati",
      "city": "Folgaria",
      "lat": "45.9292360000000",
      "lng": "11.2538940000000",
      "type": "95",
      "phone": ""
   },
   {
      "id": "3923",
      "name": "Francesco De Tacchi",
      "address": "Località Grantortino - Via Garibaldi, 54",
      "city": "Gazzo",
      "lat": "45.5474494000000",
      "lng": "11.6711025000000",
      "type": "95",
      "phone": "0495995067"
   },
   {
      "id": "13749",
      "name": "Francesco De Tacchi",
      "address": "Via Garibaldi",
      "city": "Gazzo",
      "lat": "45.5474494000000",
      "lng": "11.6711025000000",
      "type": "95",
      "phone": "0495995067"
   },
   {
      "id": "10641",
      "name": "Francesco De Tacchi",
      "address": "Località GrantortinoVia Garibaldi, 54",
      "city": "Gazzo",
      "lat": "45.5474494000000",
      "lng": "11.6711025000000",
      "type": "95",
      "phone": "049 5995067"
   },
   {
      "id": "12803",
      "name": "Maso Guez",
      "address": "di, Via Lega Nazionale, 78, TN",
      "city": "Folgaria",
      "lat": "45.9250670000000",
      "lng": "11.2101900000000",
      "type": "95",
      "phone": "392 6904866"
   },
   {
      "id": "13277",
      "name": "Costantino Barban",
      "address": "Via Piave 10",
      "city": "Grumolo delle Abbadesse",
      "lat": "45.5138700000000",
      "lng": "11.6590080000000",
      "type": "95",
      "phone": "0444 583649"
   },
   {
      "id": "9212",
      "name": "Marco Sartore",
      "address": "Via Palladio, 3",
      "city": "Marano Vicentino",
      "lat": "45.6909385000000",
      "lng": "11.4251618000000",
      "type": "95",
      "phone": "0445 560630-335 8446635"
   },
   {
      "id": "2044",
      "name": "La Stanga delle Bontà",
      "address": "Viale della Pace, 227",
      "city": "Vicenza",
      "lat": "45.5397717000000",
      "lng": "11.5831305000000",
      "type": "95",
      "phone": "0444301300"
   },
   {
      "id": "9411",
      "name": "La Stanga delle Bontà",
      "address": "Via della Pace, 227",
      "city": "Vicenza",
      "lat": "45.5397717000000",
      "lng": "11.5831305000000",
      "type": "95",
      "phone": "0444 301300"
   },
   {
      "id": "8410",
      "name": "La Capreria",
      "address": "Via Carbonare, 51",
      "city": "Montegalda",
      "lat": "45.4747657000000",
      "lng": "11.6638641000000",
      "type": "95",
      "phone": "0444 634125-340 7862914"
   },
   {
      "id": "10157",
      "name": "Dolci Pensieri",
      "address": "Via Santissima Trinità, 85",
      "city": "Schio",
      "lat": "45.7228300000000",
      "lng": "11.3641500000000",
      "type": "95",
      "phone": "0445 520016-335 5984640"
   },
   {
      "id": "7732",
      "name": "Rethia",
      "address": "Via ai Fossadi",
      "city": "Vallelaghi",
      "lat": "46.0762720000000",
      "lng": "10.9956090000000",
      "type": "95",
      "phone": "0461 340182"
   },
   {
      "id": "13273",
      "name": "Vineria Parolin",
      "address": "Via Ganbattista Vico 1",
      "city": "Vicenza",
      "lat": "45.5564150000000",
      "lng": "11.5417560000000",
      "type": "95",
      "phone": "+39 0444 024225"
   },
   {
      "id": "2784",
      "name": "BirrOne",
      "address": "Via Fossanigo, 6",
      "city": "Castelnovo di Isola Vicentina",
      "lat": "45.6200633000000",
      "lng": "11.4633819000000",
      "type": "95",
      "phone": "0444975702"
   },
   {
      "id": "7517",
      "name": "BirrOne",
      "address": "Via Fossanigo",
      "city": "Isola Vicentina",
      "lat": "45.6201160000000",
      "lng": "11.4632280000000",
      "type": "95",
      "phone": "0444 975702"
   },
   {
      "id": "7726",
      "name": "Pløtegher",
      "address": "Via Nazionale",
      "city": "Besenello",
      "lat": "45.9508366000000",
      "lng": "11.1072242000000",
      "type": "95",
      "phone": "348 5229632"
   },
   {
      "id": "1801",
      "name": "Il Ceppo",
      "address": "Corso Palladio, 196",
      "city": "Vicenza",
      "lat": "45.5489865000000",
      "lng": "11.5485294000000",
      "type": "95",
      "phone": "0444544414"
   },
   {
      "id": "9873",
      "name": "Il Molinetto",
      "address": "Contrà Chioare, 3",
      "city": "Vicenza",
      "lat": "45.5514562000000",
      "lng": "11.5448127000000",
      "type": "95",
      "phone": "0444 543128"
   },
   {
      "id": "2045",
      "name": "Il Molinetto",
      "address": "Via Chioare, 3",
      "city": "Vicenza",
      "lat": "45.5514562000000",
      "lng": "11.5448127000000",
      "type": "95",
      "phone": "0444543128"
   },
   {
      "id": "9058",
      "name": "Consorzio di Tutela del Mais Marano",
      "address": "Via Pasubio, 13",
      "city": "Malo",
      "lat": "45.6652066000000",
      "lng": "11.4080748000000",
      "type": "95",
      "phone": "0445 602087"
   },
   {
      "id": "10484",
      "name": "Tenuta Civranetta",
      "address": "Frazione Pegolotte Via Marconi",
      "city": "Cona",
      "lat": "45.1893012000000",
      "lng": "12.0383410000000",
      "type": "95",
      "phone": "0426 509136-339 1893457"
   },
   {
      "id": "11850",
      "name": "Libreria Giunti al Punto di Vicenza",
      "address": "Via Loschi 2",
      "city": "Vicenza",
      "lat": "45.5467050000000",
      "lng": "11.5428854000000",
      "type": "95",
      "phone": "0444 324193"
   },
   {
      "id": "10957",
      "name": "Fratelli Brunello",
      "address": "Via Roi, 51",
      "city": "Montegalda",
      "lat": "45.4496942000000",
      "lng": "11.6636927000000",
      "type": "95",
      "phone": "0444 737253"
   },
   {
      "id": "4784",
      "name": "Birrificio Plotegher",
      "address": "Via Nazionale, 1",
      "city": "Besenello",
      "lat": "45.9452881000000",
      "lng": "11.1021322000000",
      "type": "95",
      "phone": "3442085986"
   },
   {
      "id": "9520",
      "name": "Loison dal 1938",
      "address": "Strada 46 del Pasubio, 6",
      "city": "Costabissara",
      "lat": "45.5584645000000",
      "lng": "11.5217459000000",
      "type": "95",
      "phone": "0444 557844"
   },
   {
      "id": "8426",
      "name": "Schiavo",
      "address": "Via Mazzini, 39",
      "city": "Costabissara",
      "lat": "45.5856790000000",
      "lng": "11.4846620000000",
      "type": "95",
      "phone": "0444 971025"
   },
   {
      "id": "9621",
      "name": "Chiosco",
      "address": "Via Zanardelli, 9",
      "city": "Vicenza",
      "lat": "45.5499160000000",
      "lng": "11.5243851000000",
      "type": "95",
      "phone": "392 1426720"
   },
   {
      "id": "13278",
      "name": "Cantina Mattiello",
      "address": "Via Volto, 57",
      "city": "Longare",
      "lat": "45.4686911000000",
      "lng": "11.6014128000000",
      "type": "95",
      "phone": "347 4125041"
   },
   {
      "id": "8903",
      "name": "Valentino Marangon",
      "address": "Via Dosso",
      "city": "Porto Viro",
      "lat": "45.0328532000000",
      "lng": "12.2322000000000",
      "type": "95",
      "phone": "0426 631692"
   },
   {
      "id": "10607",
      "name": "100 Orti",
      "address": "Strada della Carpaneda, 29",
      "city": "Vicenza",
      "lat": "45.5357447000000",
      "lng": "11.5039730000000",
      "type": "95",
      "phone": "342 9712559"
   },
   {
      "id": "7723",
      "name": "Birra Pejo",
      "address": "Via delle Roge",
      "city": "Peio",
      "lat": "46.3510230000000",
      "lng": "10.6936860000000",
      "type": "95",
      "phone": "377 4386829"
   },
   {
      "id": "8336",
      "name": "Botta e Cuora",
      "address": "Via Botta",
      "city": "Cavarzere",
      "lat": "45.1123220000000",
      "lng": "12.0690050000000",
      "type": "95",
      "phone": "0426 468010"
   },
   {
      "id": "9403",
      "name": "Panificio Pasticceria Tecchiolli",
      "address": "Alcide Degasperi, 1 D",
      "city": "Cavedine",
      "lat": "45.9937651000000",
      "lng": "10.9757716000000",
      "type": "95",
      "phone": "0461 864019"
   },
   {
      "id": "15549",
      "name": "Roberto Possia",
      "address": "Via Fontecchio, 4/2",
      "city": "Vicenza",
      "lat": "45.4446920000000",
      "lng": "11.5796930000000",
      "type": "95",
      "phone": "0444 922448"
   },
   {
      "id": "11373",
      "name": "Enoteca Da Cesare",
      "address": "",
      "city": "Nanto",
      "lat": "45.4347524000000",
      "lng": "11.5800758000000",
      "type": "95",
      "phone": "0444 639045"
   },
   {
      "id": "13407",
      "name": "Azienda Agricola Scottini",
      "address": "Frazione Boccaldo",
      "city": "",
      "lat": "45.8578660000000",
      "lng": "11.0871910000000",
      "type": "95",
      "phone": "0464 411859"
   },
   {
      "id": "7647",
      "name": "Ofelia",
      "address": "Viale dell'Artigianato",
      "city": "Sovizzo",
      "lat": "45.5257460000000",
      "lng": "11.4528240000000",
      "type": "95",
      "phone": "340 4002458"
   },
   {
      "id": "15599",
      "name": "Agriturismo Marani",
      "address": "Via Zambalda, 56",
      "city": "Arcugnano",
      "lat": "45.4599651000000",
      "lng": "11.5306065000000",
      "type": "95",
      "phone": "0444 273659"
   },
   {
      "id": "9453",
      "name": "Le Betulle",
      "address": "Contrada Taulotti, 7",
      "city": "Recoaro Terme",
      "lat": "45.7013400000000",
      "lng": "11.2444800000000",
      "type": "95",
      "phone": "0445 780205"
   },
   {
      "id": "11371",
      "name": "Salumificio e Macelleria Nogara",
      "address": "Via Martiri Della Libertà, 16",
      "city": "Sovizzo",
      "lat": "45.5290770000000",
      "lng": "11.4419920000000",
      "type": "95",
      "phone": "0444 551001"
   },
   {
      "id": "13400",
      "name": "Spaccio Aziendale Da Mi a Ti",
      "address": "Via Mercerie",
      "city": "Rovereto",
      "lat": "45.8891670000000",
      "lng": "11.0440160000000",
      "type": "95",
      "phone": "380 345 8039"
   },
   {
      "id": "10403",
      "name": "La Presa",
      "address": "Via Cornera",
      "city": "Taglio di Po",
      "lat": "44.9597314000000",
      "lng": "12.2575965000000",
      "type": "95",
      "phone": ""
   },
   {
      "id": "13135",
      "name": "Pizzeria Arcobaleno di Claudia Tosello",
      "address": "Via Europa",
      "city": "San Martino di Venezze",
      "lat": "45.1307900000000",
      "lng": "11.9660300000000",
      "type": "95",
      "phone": "0426 504295"
   },
   {
      "id": "13259",
      "name": "Biogovinda",
      "address": "Via Cà Bassa",
      "city": "Albettone",
      "lat": "45.3791741000000",
      "lng": "11.6095878000000",
      "type": "95",
      "phone": "3460099106"
   },
   {
      "id": "11377",
      "name": "Tenuta Dalleore",
      "address": "Via San Nicolò, 84",
      "city": "Trissino",
      "lat": "45.5786319000000",
      "lng": "11.3606626000000",
      "type": "95",
      "phone": "331 480 5533"
   },
   {
      "id": "7727",
      "name": "Birrificio Val Rendena",
      "address": "Via Ronch",
      "city": "Pinzolo",
      "lat": "46.1699540000000",
      "lng": "10.7668660000000",
      "type": "95",
      "phone": "0465 503480"
   },
   {
      "id": "12712",
      "name": "Buonissimo",
      "address": "Via Benacense, 50",
      "city": "Rovereto",
      "lat": "45.8781820000000",
      "lng": "11.0338723000000",
      "type": "95",
      "phone": "0464435548"
   },
   {
      "id": "15479",
      "name": "Borin Vini e Vigne",
      "address": "Via dei Colli, 5",
      "city": "Monselice",
      "lat": "45.2699400000000",
      "lng": "11.7519700000000",
      "type": "95",
      "phone": "0429 74384"
   },
   {
      "id": "1796",
      "name": "La Lumaca Polesana",
      "address": "Via Radetta",
      "city": "San Martino di Venezze",
      "lat": "45.1314527000000",
      "lng": "11.9472138000000",
      "type": "95",
      "phone": "3391545777"
   },
   {
      "id": "8429",
      "name": "Panificio Moderno",
      "address": "Via Al Ponte, 10",
      "city": "Isera",
      "lat": "45.8835900000000",
      "lng": "11.0170000000000",
      "type": "95",
      "phone": "0464 436196"
   },
   {
      "id": "9144",
      "name": "Claudio Nardini",
      "address": "Frazione Cavanella Po",
      "city": "Adria",
      "lat": "45.0555348000000",
      "lng": "12.0606789000000",
      "type": "95",
      "phone": "0426 43762"
   },
   {
      "id": "14846",
      "name": "Cooperativa Isera",
      "address": "Piazza S. Vincenzo",
      "city": "Isera",
      "lat": "45.8854430000000",
      "lng": "11.0090870000000",
      "type": "95",
      "phone": "0464433793"
   },
   {
      "id": "13133",
      "name": "Zanghielli Maurizio Az. Agr.",
      "address": "via Carpenè",
      "city": "Isera",
      "lat": "45.8849324000000",
      "lng": "11.0026972000000",
      "type": "95",
      "phone": "3358393129"
   },
   {
      "id": "15804",
      "name": "Busa dei Briganti",
      "address": "Via Forestana",
      "city": "Cinto Euganeo",
      "lat": "45.3010840000000",
      "lng": "11.6701980000000",
      "type": "95",
      "phone": "392 3447298"
   },
   {
      "id": "15705",
      "name": "Del Rèbene",
      "address": "Via Bertoldi, 25",
      "city": "Zovencedo",
      "lat": "45.4407900000000",
      "lng": "11.4821440000000",
      "type": "95",
      "phone": ""
   },
   {
      "id": "15475",
      "name": "Frantoio di Valnogaredo",
      "address": "Via Mantovane, 8 A",
      "city": "Cinto Euganeo",
      "lat": "45.2991600000000",
      "lng": "11.6621700000000",
      "type": "95",
      "phone": "0429 647224"
   },
   {
      "id": "9926",
      "name": "La Bella",
      "address": "Via San Basilio",
      "city": "Ariano nel Polesine",
      "lat": "44.9517404000000",
      "lng": "12.1813527000000",
      "type": "95",
      "phone": "335 7674027"
   },
   {
      "id": "9416",
      "name": "Società Agricola Tumiatti Graziano s.s.",
      "address": "Via Tombe",
      "city": "Ariano nel Polesine",
      "lat": "44.9600299000000",
      "lng": "12.1552014000000",
      "type": "95",
      "phone": "0426 71428"
   },
   {
      "id": "12499",
      "name": "Distillerie Lidia",
      "address": "S.P. Berico Euganea, 30",
      "city": "Belvedere Di Villaga",
      "lat": "45.3779090000000",
      "lng": "11.5365430000000",
      "type": "95",
      "phone": "444885074"
   },
   {
      "id": "12535",
      "name": "Soc. Agricola Piovene Porto Godi",
      "address": "Via Villa, 14 - Toara",
      "city": "Villaga",
      "lat": "45.3886038000000",
      "lng": "11.5150198000000",
      "type": "95",
      "phone": "444885142"
   },
   {
      "id": "13270",
      "name": "Maso Cengi Az. Agr.",
      "address": "Strada statale 12 del Brennero km 345.3",
      "city": "Rovereto",
      "lat": "45.8256910000000",
      "lng": "11.0114190000000",
      "type": "95",
      "phone": "3348319828"
   },
   {
      "id": "1803",
      "name": "Le Valli",
      "address": "Via Valli, 2",
      "city": "Val Liona",
      "lat": "45.4153464000000",
      "lng": "11.4760694000000",
      "type": "95",
      "phone": "0444868432"
   },
   {
      "id": "9343",
      "name": "La Primula",
      "address": "Via Povoleri, 17 A",
      "city": "Nogarole Vicentino",
      "lat": "45.5576830000000",
      "lng": "11.3012730000000",
      "type": "95",
      "phone": "0444 427285"
   },
   {
      "id": "12013",
      "name": "Olivieri 1882",
      "address": "Via Calavena Bassa,24",
      "city": "Arzignano",
      "lat": "45.5187786000000",
      "lng": "11.3400764000000",
      "type": "95",
      "phone": "444670344"
   },
   {
      "id": "12809",
      "name": "Peperoncino Trentino",
      "address": "Via S. Agnese 1",
      "city": "Mori",
      "lat": "45.8460410000000",
      "lng": "10.9785420000000",
      "type": "95",
      "phone": "335 839 3129"
   },
   {
      "id": "15655",
      "name": "Lucia Repele",
      "address": "Via Repele, 3",
      "city": "Nogarole Vicentino",
      "lat": "45.5564747000000",
      "lng": "11.2893015000000",
      "type": "95",
      "phone": "0444 1770264"
   },
   {
      "id": "1804",
      "name": "Allevamento Trote di Tibaldo Paolo",
      "address": "Via Cartiera, 2",
      "city": "Crespadoro",
      "lat": "45.6258463000000",
      "lng": "11.2095807000000",
      "type": "95",
      "phone": "0444429065"
   },
   {
      "id": "1799",
      "name": "Gastronomia Zini 1915",
      "address": "Via Trieste, 1",
      "city": "Arzignano",
      "lat": "45.5214770000000",
      "lng": "11.3289765000000",
      "type": "95",
      "phone": "0444671518"
   },
   {
      "id": "15743",
      "name": "Laghel7",
      "address": "Via San Bernardino,  5",
      "city": "Arco",
      "lat": "45.9336760000000",
      "lng": "10.8880900000000",
      "type": "95",
      "phone": ""
   },
   {
      "id": "14848",
      "name": "Molino Vettori - Farine Biologiche",
      "address": "VIA ARMANI",
      "city": "Mori",
      "lat": "45.8649300000000",
      "lng": "10.9540570000000",
      "type": "95",
      "phone": "3479812419"
   },
   {
      "id": "1802",
      "name": "Azienda Agricola Le Barbarighe",
      "address": "Via Barbarighe",
      "city": "San Martino di Venezze",
      "lat": "45.1072565000000",
      "lng": "11.8817835000000",
      "type": "95",
      "phone": "0425 99383"
   },
   {
      "id": "13269",
      "name": "Macelleria Ghiotto",
      "address": "Via Zanella 1/A",
      "city": "Montorso Vicentino",
      "lat": "45.4899350000000",
      "lng": "11.3611590000000",
      "type": "95",
      "phone": "+39 0444 685440"
   },
   {
      "id": "14849",
      "name": "Azienda Agricola Il Fagiolo Magico",
      "address": "Via dei Legionari Cecoslovacchi",
      "city": "Arco",
      "lat": "45.9261580000000",
      "lng": "10.8890540000000",
      "type": "95",
      "phone": "3331789550"
   },
   {
      "id": "12522",
      "name": "Negozio di generi alimentari Zoia",
      "address": "Piazza Castello, 7",
      "city": "Lozzo Atesino",
      "lat": "45.2943264000000",
      "lng": "11.6050351000000",
      "type": "95",
      "phone": "42997081"
   },
   {
      "id": "8551",
      "name": "Na' Valdegresta Azienda Agricola Ivo Gelmini",
      "address": "Località Valle San FelicePiazza San Felice, 5-7",
      "city": "Mori",
      "lat": "45.8692430000000",
      "lng": "10.9384110000000",
      "type": "95",
      "phone": "0464 356953 339-85.383.44"
   },
   {
      "id": "9127",
      "name": "La Mesa",
      "address": "Via A.A. Rizzo",
      "city": "Villadose",
      "lat": "45.0823600000000",
      "lng": "11.9067800000000",
      "type": "95",
      "phone": "0425 90613"
   },
   {
      "id": "3376",
      "name": "NaturGresta",
      "address": "Loc. Rinzom - Valle S.Felice",
      "city": "Mori",
      "lat": "45.8689890000000",
      "lng": "10.9382190000000",
      "type": "95",
      "phone": "0464802204"
   },
   {
      "id": "10568",
      "name": "Forneria di Poletto Pietro",
      "address": "Via dei Mille",
      "city": "Rovigo",
      "lat": "45.1120950000000",
      "lng": "11.8452420000000",
      "type": "95",
      "phone": "0425 935133"
   },
   {
      "id": "12915",
      "name": "Birre della Terra Società agricola",
      "address": "via Mainenti",
      "city": "Val Liona",
      "lat": "45.3864460000000",
      "lng": "11.4655030000000",
      "type": "95",
      "phone": "3473593086"
   },
   {
      "id": "15668",
      "name": "Tenuta Maso Bòtes",
      "address": "Località Olif de Botes, 1",
      "city": "Arco",
      "lat": "45.9246690000000",
      "lng": "10.8591270000000",
      "type": "95",
      "phone": ""
   },
   {
      "id": "14155",
      "name": "Baldensis",
      "address": "Via San Rocco",
      "city": "Brentonico",
      "lat": "45.8194460000000",
      "lng": "10.9584490000000",
      "type": "95",
      "phone": "348 013 09 94"
   },
   {
      "id": "1836",
      "name": "Antico Forno a Legna del Borgo",
      "address": "Via Borgo",
      "city": "Papozze",
      "lat": "44.9862502000000",
      "lng": "12.0199348000000",
      "type": "95",
      "phone": "0426 44209"
   },
   {
      "id": "10464",
      "name": "Galassa",
      "address": "Via Guccia",
      "city": "Gavello",
      "lat": "45.0242537000000",
      "lng": "11.9504568000000",
      "type": "95",
      "phone": "0425 798151"
   },
   {
      "id": "15550",
      "name": "Agraria Riva del Garda",
      "address": "Via San Nazzaro, 4",
      "city": "Riva del Garda",
      "lat": "45.9013138000000",
      "lng": "10.8582831000000",
      "type": "95",
      "phone": "0464 552133"
   },
   {
      "id": "15453",
      "name": "Madonna delle Vittorie",
      "address": "Via Linfano, 81",
      "city": "Arco",
      "lat": "45.8803819000000",
      "lng": "10.8748142000000",
      "type": "95",
      "phone": "0464  505542 - 505432"
   },
   {
      "id": "4814",
      "name": "Madonna delle Vittorie",
      "address": "Via Linfano, 81",
      "city": "Arco",
      "lat": "45.8803819000000",
      "lng": "10.8748142000000",
      "type": "95",
      "phone": "0464505432"
   },
   {
      "id": "3379",
      "name": "Azienda Agraria Riva del Garda",
      "address": "Località S. Nazzaro, 4",
      "city": "Riva del Garda",
      "lat": "45.8973200000000",
      "lng": "10.8525200000000",
      "type": "95",
      "phone": "0464552133"
   },
   {
      "id": "3360",
      "name": "Molino Pellegrini",
      "address": "Via Varoncello 27",
      "city": "Riva del Garda",
      "lat": "45.9062264000000",
      "lng": "10.8433760000000",
      "type": "95",
      "phone": "0464521323"
   },
   {
      "id": "13134",
      "name": "Pescheria Robi di Roberto Pinato",
      "address": "Via Guglielmo Marconi",
      "city": "Stanghella",
      "lat": "45.1346637000000",
      "lng": "11.7577885000000",
      "type": "95",
      "phone": "0425 95025"
   },
   {
      "id": "10601",
      "name": "Gran Carni Astolfi",
      "address": "Piazza Pighin",
      "city": "Stanghella",
      "lat": "45.1344437000000",
      "lng": "11.7564654000000",
      "type": "95",
      "phone": "0425 958116"
   },
   {
      "id": "15669",
      "name": "Olio Cru",
      "address": "Via Maso Belli, 1 B",
      "city": "Riva del Garda",
      "lat": "45.8868480000000",
      "lng": "10.8557410000000",
      "type": "95",
      "phone": "0464 715344"
   },
   {
      "id": "9594",
      "name": "Il Tortellaio Matto",
      "address": "Via 1° Maggio, 57",
      "city": "Boara Pisani",
      "lat": "45.1107758000000",
      "lng": "11.7789947000000",
      "type": "95",
      "phone": "345 1060541"
   },
   {
      "id": "3931",
      "name": "La Casara",
      "address": "Via Nuova, 1-3",
      "city": "Roncà",
      "lat": "45.4780108000000",
      "lng": "11.2881591000000",
      "type": "95",
      "phone": "0457460052"
   },
   {
      "id": "13276",
      "name": "Caseificio Artigiano Dario Gugole",
      "address": "Via Cotto 44",
      "city": "San Giovanni Ilarione",
      "lat": "45.5115260000000",
      "lng": "11.2423340000000",
      "type": "95",
      "phone": "045 6550285"
   },
   {
      "id": "3932",
      "name": "Dario Gugole",
      "address": "Via Cotto, 44",
      "city": "San Giovanni Ilarione",
      "lat": "45.5115016000000",
      "lng": "11.2423373000000",
      "type": "95",
      "phone": "0456550285"
   },
   {
      "id": "8695",
      "name": "Dario Gugole",
      "address": "Via Cotto, 44",
      "city": "San Giovanni Ilarione",
      "lat": "45.5115016000000",
      "lng": "11.2423373000000",
      "type": "95",
      "phone": "045 6550285"
   },
   {
      "id": "4687",
      "name": "Agritur Mortigola",
      "address": "via a la mortigola, 3",
      "city": "San Giacomo",
      "lat": "45.8009400000000",
      "lng": "10.9205300000000",
      "type": "95",
      "phone": "0464391555"
   },
   {
      "id": "10983",
      "name": "Gelateria Godot",
      "address": "Via Domenico Piva",
      "city": "Rovigo",
      "lat": "45.0757129000000",
      "lng": "11.7983856000000",
      "type": "95",
      "phone": "0425 202044"
   },
   {
      "id": "10486",
      "name": "Panificio Pellegrini",
      "address": "Via Gobatti",
      "city": "Rovigo",
      "lat": "45.0771400000000",
      "lng": "11.7873500000000",
      "type": "95",
      "phone": "0425 090085"
   },
   {
      "id": "13202",
      "name": "Società Agricola Bordina - Orto Biologico",
      "address": "Via Orti",
      "city": "Rovigo",
      "lat": "45.0927959000000",
      "lng": "11.7614405000000",
      "type": "95",
      "phone": "335 6998653"
   },
   {
      "id": "13274",
      "name": "Caseificio Achille  di Ezio Dalla Valentina",
      "address": "Località Stander 1",
      "city": "Velo Veronese",
      "lat": "45.6199470000000",
      "lng": "11.0864400000000",
      "type": "95",
      "phone": "045 7835549"
   },
   {
      "id": "10299",
      "name": "Caseificio Achille",
      "address": "Località Stander, 1",
      "city": "Velo Veronese",
      "lat": "45.6198344000000",
      "lng": "11.0864297000000",
      "type": "95",
      "phone": "045 7835549"
   },
   {
      "id": "3377",
      "name": "Caseificio Sociale di Sabbionara",
      "address": "Via Vignola 25",
      "city": "Avio",
      "lat": "45.7410860000000",
      "lng": "10.9550000000000",
      "type": "95",
      "phone": "0464684262"
   },
   {
      "id": "13201",
      "name": "Enoteca Otto",
      "address": "Via Nino Bedendo",
      "city": "Rovigo",
      "lat": "45.0712094000000",
      "lng": "11.7906077000000",
      "type": "95",
      "phone": "0425 25581"
   },
   {
      "id": "13200",
      "name": "Macelleria Salumeria Da Lucio Zago",
      "address": "Via Don Minzoni",
      "city": "Rovigo",
      "lat": "45.0672700000000",
      "lng": "11.7937400000000",
      "type": "95",
      "phone": "0425 23197"
   },
   {
      "id": "15706",
      "name": "Tenuta Pojana",
      "address": "Località Maronaro, 1",
      "city": "Cazzano di Tramigna",
      "lat": "45.4906390000000",
      "lng": "11.2189680000000",
      "type": "95",
      "phone": "045 7820675"
   },
   {
      "id": "13090",
      "name": "Malga Vazzo Az. Agr.",
      "address": "Via Vazzo",
      "city": "Velo Veronese",
      "lat": "45.5935588000000",
      "lng": "11.0907782000000",
      "type": "95",
      "phone": "045 783 5010"
   },
   {
      "id": "9670",
      "name": "Il Dosso",
      "address": "Via Dosso, 2",
      "city": "Sant’Urbano",
      "lat": "45.1372145000000",
      "lng": "11.6645730000000",
      "type": "95",
      "phone": "0429 693292"
   },
   {
      "id": "13199",
      "name": "Panificio Fermenta",
      "address": "Viale delle Industrie",
      "city": "Rovigo",
      "lat": "45.0398578000000",
      "lng": "11.8025127000000",
      "type": "95",
      "phone": "0425 543717"
   },
   {
      "id": "10584",
      "name": "Valier azienda agricola",
      "address": "Via Maestri del Lavoro",
      "city": "Rovigo",
      "lat": "45.0283088000000",
      "lng": "11.7949283000000",
      "type": "95",
      "phone": "0425 474575"
   },
   {
      "id": "13203",
      "name": "Azienda Agricola Zullato Paola",
      "address": "Località Balladore",
      "city": "Bosaro",
      "lat": "45.0256187000000",
      "lng": "11.7973537000000",
      "type": "95",
      "phone": "335 1624394"
   },
   {
      "id": "12917",
      "name": "Zafferano Lessinia",
      "address": "Contrada Crosara, 3",
      "city": "Roverè Vronese",
      "lat": "45.5674610000000",
      "lng": "11.0780180000000",
      "type": "95",
      "phone": "3209626330"
   },
   {
      "id": "8353",
      "name": "Ortodidattico Il Profumo della Freschezza",
      "address": "Via Provvidenza",
      "city": "Lusia",
      "lat": "45.0995885000000",
      "lng": "11.6740683000000",
      "type": "95",
      "phone": "0425 667475"
   },
   {
      "id": "15477",
      "name": "Trabucchi d'Illasi",
      "address": "Località Monte Tenda, 5",
      "city": "Illasi",
      "lat": "45.4615850000000",
      "lng": "11.1977610000000",
      "type": "95",
      "phone": "045 7833233"
   },
   {
      "id": "13198",
      "name": "Sapori di Capolavia",
      "address": "Via Rodolfo Rossi",
      "city": "Rovigo",
      "lat": "45.0545043000000",
      "lng": "11.7350770000000",
      "type": "95",
      "phone": "370 3398586"
   },
   {
      "id": "12788",
      "name": "Giacopuzzi Renato Azienda Agricola",
      "address": "Via Stiffa",
      "city": "Sant'Anna d'Alfaedo",
      "lat": "45.6606620000000",
      "lng": "10.9669383000000",
      "type": "95",
      "phone": "3287610626"
   },
   {
      "id": "13089",
      "name": "Selvavecchia Az. Agr.",
      "address": "via Provalo",
      "city": "Sant'Anna di Alfaedo",
      "lat": "45.6538200000000",
      "lng": "10.9724555000000",
      "type": "95",
      "phone": "347 763 6352"
   },
   {
      "id": "7735",
      "name": "Leder",
      "address": "Via Nuova",
      "city": "Ledro",
      "lat": "45.8903340000000",
      "lng": "10.7270230000000",
      "type": "95",
      "phone": "348 8902543"
   },
   {
      "id": "11320",
      "name": "Bar Commercio Enoteca Tomanin",
      "address": "Piazza Vittorio Emanuele Ii, 1",
      "city": "Montagnana",
      "lat": "45.2321810000000",
      "lng": "11.4674136000000",
      "type": "95",
      "phone": "0429 81195"
   },
   {
      "id": "13193",
      "name": "Caseificio Morandini",
      "address": "via Dosso",
      "city": "Erbezzo",
      "lat": "45.6327894000000",
      "lng": "10.9840359000000",
      "type": "95",
      "phone": "045 7075050"
   },
   {
      "id": "1805",
      "name": "Attilio Fontana Prosciutti",
      "address": "Via Campana, 8",
      "city": "Montagnana",
      "lat": "45.2298430000000",
      "lng": "11.4681497000000",
      "type": "95",
      "phone": "042981010"
   },
   {
      "id": "9686",
      "name": "Damoli",
      "address": "Località Villabella, 17",
      "city": "San Bonifacio",
      "lat": "45.4062285000000",
      "lng": "11.2407504000000",
      "type": "95",
      "phone": "045 6103607-346 2177829"
   },
   {
      "id": "12673",
      "name": "Ristorante Le Mura",
      "address": "Via Circonvallazione, 145",
      "city": "Montagnana",
      "lat": "45.2318313000000",
      "lng": "11.4624816000000",
      "type": "95",
      "phone": "429800288"
   },
   {
      "id": "2979",
      "name": "Gastronomia Damoli",
      "address": "Località Villabella",
      "city": "San Bonifacio",
      "lat": "45.4052745000000",
      "lng": "11.2403904000000",
      "type": "95",
      "phone": "0456103607"
   },
   {
      "id": "15478",
      "name": "San Cassiano",
      "address": "Via San Cassiano, 25",
      "city": "Mezzane di Sotto",
      "lat": "45.4826400000000",
      "lng": "11.1458900000000",
      "type": "95",
      "phone": "045 8880665"
   },
   {
      "id": "9315",
      "name": "Soavino",
      "address": "Viale del Commercio, 25",
      "city": "Soave",
      "lat": "45.4080654000000",
      "lng": "11.2328382000000",
      "type": "95",
      "phone": "045 6190199"
   },
   {
      "id": "15476",
      "name": "Frantoio Bonamini",
      "address": "Via Santa Giustina, 10",
      "city": "Illasi",
      "lat": "45.4558580000000",
      "lng": "11.1715640000000",
      "type": "95",
      "phone": "045 6520558"
   },
   {
      "id": "15455",
      "name": "Agostino Vicentini",
      "address": "Via Cesare Battisti, 62",
      "city": "Colognola ai Colli",
      "lat": "45.4430700000000",
      "lng": "11.1787700000000",
      "type": "95",
      "phone": "045 7650539"
   },
   {
      "id": "12798",
      "name": "Tezon Fattoria Sociale",
      "address": "Via Roversello",
      "city": "Veronella",
      "lat": "45.3182286000000",
      "lng": "11.3273757000000",
      "type": "95",
      "phone": "3667841368"
   },
   {
      "id": "15740",
      "name": "La Contarina",
      "address": "Via Montecurto, 7",
      "city": "Illasi",
      "lat": "45.4586110000000",
      "lng": "11.1484760000000",
      "type": "95",
      "phone": ""
   },
   {
      "id": "9488",
      "name": "Caseificio Giulia",
      "address": "Via Dalla Bona, 4",
      "city": "Sant’Anna d’Alfaedo",
      "lat": "45.6279950000000",
      "lng": "10.9526211000000",
      "type": "95",
      "phone": "045 7532575"
   },
   {
      "id": "13735",
      "name": "La contarina",
      "address": "Via Montecurto",
      "city": "Illasi",
      "lat": "45.4521900000000",
      "lng": "11.1462400000000",
      "type": "95",
      "phone": "3388278920"
   },
   {
      "id": "10514",
      "name": "Consorzio Ortofrutticolo di Belfiore",
      "address": "Via Linale, 4",
      "city": "Belfiore",
      "lat": "45.3803256000000",
      "lng": "11.2189378000000",
      "type": "95",
      "phone": "045 6149073"
   },
   {
      "id": "12924",
      "name": "Marconi Valentino Sapori d'Alta Quota",
      "address": "Via Pontarol",
      "city": "Sant'Anna d'Alfaedo",
      "lat": "45.6145476000000",
      "lng": "10.9476262000000",
      "type": "95",
      "phone": "3248318197"
   },
   {
      "id": "9537",
      "name": "Vanzani",
      "address": "Via Argine Maronari, 45",
      "city": "Belfiore",
      "lat": "45.3830382000000",
      "lng": "11.2042758000000",
      "type": "95",
      "phone": "045 6149057-336 780995"
   },
   {
      "id": "13317",
      "name": "Guglielmetti Gelmino Azienda Agricola",
      "address": "via Musi",
      "city": "Caldiero",
      "lat": "45.4051517000000",
      "lng": "11.1732483000000",
      "type": "95",
      "phone": "045 765 25 78"
   },
   {
      "id": "12977",
      "name": "Girasole Az. Agr.",
      "address": "Via Avis",
      "city": "Brentino Belluno",
      "lat": "45.6533768000000",
      "lng": "10.8917558000000",
      "type": "95",
      "phone": "045 7270553"
   },
   {
      "id": "12762",
      "name": "Falasco Apicoltura",
      "address": "Via degli Alpini",
      "city": "Verona",
      "lat": "45.5487060000000",
      "lng": "11.0046670000000",
      "type": "95",
      "phone": "3479963305"
   },
   {
      "id": "1792",
      "name": "Corrado Benedetti",
      "address": "Croce dello Schioppo, 1",
      "city": "Sant'Anna d'Alfaedo",
      "lat": "45.5837400000000",
      "lng": "10.9651900000000",
      "type": "95",
      "phone": "0457545186"
   },
   {
      "id": "10233",
      "name": "Domenico Fasoli",
      "address": "Località CernaVia Maso, 15 A",
      "city": "Sant'Anna d'Alfaedo",
      "lat": "45.5906887000000",
      "lng": "10.9399005000000",
      "type": "95",
      "phone": "045 9611851"
   },
   {
      "id": "12918",
      "name": "Società Agricola Bogoni e Bogonelle",
      "address": "Via Maso di Cerna",
      "city": "Sant'Anna d'Alfaedo",
      "lat": "45.5897881000000",
      "lng": "10.9381238000000",
      "type": "95",
      "phone": "348 4010244"
   },
   {
      "id": "13360",
      "name": "Caseificio Alpe del Garda",
      "address": "Via Provinciale",
      "city": "Tremosine sul Garda",
      "lat": "45.7819768000000",
      "lng": "10.7219014000000",
      "type": "95",
      "phone": "0365 953050"
   },
   {
      "id": "15481",
      "name": "Giovanni Salvagno",
      "address": "Contrada Gazzego, 1",
      "city": "Verona",
      "lat": "45.4827500000000",
      "lng": "11.0311400000000",
      "type": "95",
      "phone": "045 526040"
   },
   {
      "id": "1760",
      "name": "Azienda agricola La Gambarella",
      "address": "Via del Vegron, 5",
      "city": "Verona",
      "lat": "45.4431200000000",
      "lng": "11.0606200000000",
      "type": "95",
      "phone": "3494263376"
   },
   {
      "id": "13015",
      "name": "Apicoltura Liviero",
      "address": "via i Monti",
      "city": "Brenzone sul Garda",
      "lat": "45.7084285000000",
      "lng": "10.7675388000000",
      "type": "95",
      "phone": "347 0509581"
   },
   {
      "id": "13003",
      "name": "Sartori Carni",
      "address": "via XX Settembre",
      "city": "Brenzone sul Garda",
      "lat": "45.7082264000000",
      "lng": "10.7670461000000",
      "type": "95",
      "phone": "045 7420021"
   },
   {
      "id": "15732",
      "name": "Monica Vaccarella",
      "address": "Strada per Montecchio, 6/D",
      "city": "Verona",
      "lat": "45.4935000000000",
      "lng": "10.9927900000000",
      "type": "95",
      "phone": ""
   },
   {
      "id": "9928",
      "name": "Il Bio di Vasco",
      "address": "Quarto II Tronco, 1 A",
      "city": "Castelbaldo",
      "lat": "45.1378361000000",
      "lng": "11.4330258000000",
      "type": "95",
      "phone": "335 328100-335 1307514"
   },
   {
      "id": "3441",
      "name": "Azienda Agricola Fattoria del Sole",
      "address": "Via Costa, 74",
      "city": "Edolo",
      "lat": "46.1936677000000",
      "lng": "10.3258470000000",
      "type": "95",
      "phone": "0364534105"
   },
   {
      "id": "13305",
      "name": "Conti Nicolò Az. Agr.",
      "address": "via Vittorio Veneto",
      "city": "Zevio",
      "lat": "45.3738136000000",
      "lng": "11.1269867000000",
      "type": "95",
      "phone": "3934950961"
   },
   {
      "id": "15650",
      "name": "Latteria Turnaria di Tignale",
      "address": "Via Manzoni, 1",
      "city": "Tignale",
      "lat": "45.7405295000000",
      "lng": "10.7201093000000",
      "type": "95",
      "phone": "0365 73471"
   },
   {
      "id": "10105",
      "name": "Tommaso Caprini",
      "address": "Via Mazzini, 41",
      "city": "Negrar",
      "lat": "45.5319063000000",
      "lng": "10.9383948000000",
      "type": "95",
      "phone": "045 7500073"
   },
   {
      "id": "13306",
      "name": "Croce del Gal Az. Agr.",
      "address": "via Sasse",
      "city": "Verona",
      "lat": "45.4168342000000",
      "lng": "11.0558920000000",
      "type": "95",
      "phone": "3405992231"
   },
   {
      "id": "10834",
      "name": "Macelleria Moreschi",
      "address": "Via Matteotti, 90",
      "city": "Pincara",
      "lat": "44.9922327000000",
      "lng": "11.6111434000000",
      "type": "95",
      "phone": "0425 745094"
   },
   {
      "id": "13295",
      "name": "Fragoliamo Società Agricola",
      "address": "Località Fasse",
      "city": "Brenzone sul Garda",
      "lat": "45.6764821000000",
      "lng": "10.7566614000000",
      "type": "95",
      "phone": "393 2058140"
   },
   {
      "id": "12793",
      "name": "San Bonifacio Azienda Agricola",
      "address": "Corso A. Fraccaroli",
      "city": "Villa Bartolomea",
      "lat": "45.1620750000000",
      "lng": "11.3567980000000",
      "type": "95",
      "phone": "3394426289"
   },
   {
      "id": "13389",
      "name": "Bar Caffetteria al Duomo",
      "address": "Piazza Duomo",
      "city": "Verona",
      "lat": "45.4467134000000",
      "lng": "10.9965308000000",
      "type": "95",
      "phone": "045 597274"
   },
   {
      "id": "13136",
      "name": "Pagliarini Avicola",
      "address": "Via Vittorio Emanuele",
      "city": "Canaro",
      "lat": "44.9357442000000",
      "lng": "11.6731558000000",
      "type": "95",
      "phone": "0425 940042"
   },
   {
      "id": "1848",
      "name": "I Sapori del Portico",
      "address": "Via San Francesco, 48",
      "city": "Negrar",
      "lat": "45.4924222000000",
      "lng": "10.9438411000000",
      "type": "95",
      "phone": "0457513003"
   },
   {
      "id": "13049",
      "name": "Zenkmzero Take Away & Delivery",
      "address": "Via Cesiolo",
      "city": "Verona",
      "lat": "45.4538268000000",
      "lng": "10.9875501000000",
      "type": "95",
      "phone": "3208188161"
   },
   {
      "id": "7967",
      "name": "Birrificio Valle del Chiese",
      "address": "Via Garibaldi",
      "city": "Storo",
      "lat": "45.8545260000000",
      "lng": "10.5719009000000",
      "type": "95",
      "phone": "334 7700992"
   },
   {
      "id": "12790",
      "name": "Il Sambuco Azienda Agricola",
      "address": "via Monte Lessini",
      "city": "Zevio",
      "lat": "45.3744591000000",
      "lng": "11.0792182000000",
      "type": "95",
      "phone": "3355458022"
   },
   {
      "id": "13246",
      "name": "Saporè Pizza Stand Up",
      "address": "Via della Costa",
      "city": "Verona",
      "lat": "45.4431520000000",
      "lng": "10.9977137000000",
      "type": "95",
      "phone": "045 801 0870"
   },
   {
      "id": "13378",
      "name": "Il Vigneto dei Salumi",
      "address": "Via Casa Zamboni",
      "city": "Arbizzano di Negrar",
      "lat": "45.4944572000000",
      "lng": "10.9374086000000",
      "type": "95",
      "phone": "045 7514233"
   },
   {
      "id": "12916",
      "name": "Cioccolato Italiano",
      "address": "Piazza Vittorio Veneto",
      "city": "Verona",
      "lat": "45.4480471000000",
      "lng": "10.9871629000000",
      "type": "95",
      "phone": "3355218817"
   },
   {
      "id": "1999",
      "name": "Scapin Caffè-Cucina & Bottega dal 1935",
      "address": "Via Diaz, 20-22",
      "city": "Verona",
      "lat": "45.4424858000000",
      "lng": "10.9926276000000",
      "type": "95",
      "phone": "0458003552"
   },
   {
      "id": "13000",
      "name": "La Botteghetta",
      "address": "Via Leoncino, 21",
      "city": "Verona",
      "lat": "45.4387390000000",
      "lng": "10.9968740000000",
      "type": "95",
      "phone": "045 242 3452"
   },
   {
      "id": "5985",
      "name": "Pizzacaffè LaTorre #1",
      "address": "Stradone Scipione Maffei",
      "city": "Verona",
      "lat": "45.4376047000000",
      "lng": "10.9970107000000",
      "type": "95",
      "phone": "0452525464"
   },
   {
      "id": "13354",
      "name": "Cantina Vi Bu",
      "address": "Via Nazionale",
      "city": "Malonno",
      "lat": "46.1246619000000",
      "lng": "10.3250938000000",
      "type": "95",
      "phone": "+39 3341417064"
   },
   {
      "id": "15480",
      "name": "Zymè",
      "address": "Via Ca del Pipa, 1",
      "city": "San Pietro in Cariano",
      "lat": "45.5169600000000",
      "lng": "10.9015700000000",
      "type": "95",
      "phone": "045 7701108"
   },
   {
      "id": "13367",
      "name": "Enoteca Zero 7",
      "address": "Vicolo Ghiaia",
      "city": "Verona",
      "lat": "45.4372093000000",
      "lng": "10.9914952000000",
      "type": "95",
      "phone": "045 9235180"
   },
   {
      "id": "13362",
      "name": "Cantina Buglioni",
      "address": "via Campagnole",
      "city": "San Pietro in Cariano",
      "lat": "45.4962544000000",
      "lng": "10.9177861000000",
      "type": "95",
      "phone": "045 6760676"
   },