[
   {
      "id": "6699",
      "name": "Zaro 1348",
      "address": "Via Polje, 12/a",
      "city": "Izola",
      "lat": "46.1586010000000",
      "lng": "13.5172982000000",
      "type": "671",
      "phone": "+386 (0)41 218547"
   },
   {
      "id": "6993",
      "name": "Albano Guerra",
      "address": "Viale Kennedy, 39",
      "city": "Torreano",
      "lat": "46.1201220000000",
      "lng": "13.4061210000000",
      "type": "671",
      "phone": "0432 715077"
   },
   {
      "id": "7107",
      "name": "Jacùss",
      "address": "Viale Kennedy, 35/a",
      "city": "Torreano",
      "lat": "46.1197260000000",
      "lng": "13.4062230000000",
      "type": "671",
      "phone": "0432 715147"
   },
   {
      "id": "6723",
      "name": "Ca' dei Faggi",
      "address": "Via Città di Nave, 10",
      "city": "Faedis",
      "lat": "46.1378650000000",
      "lng": "13.3623930000000",
      "type": "671",
      "phone": "0432 711075"
   },
   {
      "id": "6162",
      "name": "Flaibani",
      "address": "Via Casali Costa, 7",
      "city": "Cividale del Friuli",
      "lat": "46.0728049000000",
      "lng": "13.4636348000000",
      "type": "671",
      "phone": "0432 730943"
   },
   {
      "id": "6338",
      "name": "Fiegl",
      "address": "Località Lenzuolo Bianco, 1",
      "city": "Gorizia",
      "lat": "45.9815556000000",
      "lng": "13.6090730000000",
      "type": "671",
      "phone": "0481 547103"
   },
   {
      "id": "7349",
      "name": "Bastianich",
      "address": "Via Darnazzacco, 44/2",
      "city": "Cividale del Friuli",
      "lat": "46.0757323000000",
      "lng": "13.4481621000000",
      "type": "671",
      "phone": "0432 700943"
   },
   {
      "id": "6428",
      "name": "Vigna Petrussa",
      "address": "Via Albana, 47",
      "city": "Prepotto",
      "lat": "46.0501494000000",
      "lng": "13.4896918000000",
      "type": "671",
      "phone": "0432 713021"
   },
   {
      "id": "7148",
      "name": "Petrussa",
      "address": "Via Albana, 49",
      "city": "Prepotto",
      "lat": "46.0501494000000",
      "lng": "13.4896918000000",
      "type": "671",
      "phone": "0432 713192"
   },
   {
      "id": "6512",
      "name": "Marco Cecchini",
      "address": "Via Case Cos, 39",
      "city": "Faedis",
      "lat": "46.1418482000000",
      "lng": "13.3383168000000",
      "type": "671",
      "phone": "0432 720563"
   },
   {
      "id": "6654",
      "name": "Primosic",
      "address": "Località Madonnina, 3",
      "city": "Gorizia",
      "lat": "45.9740701000000",
      "lng": "13.6114251000000",
      "type": "671",
      "phone": "0481 535153"
   },
   {
      "id": "7359",
      "name": "Draga",
      "address": "Località Scedina, 8",
      "city": "San Floriano del Collio",
      "lat": "45.9801788000000",
      "lng": "13.5962714000000",
      "type": "671",
      "phone": "0481 884182"
   },
   {
      "id": "7146",
      "name": "Ronc dai Luchis",
      "address": "Via Udine, 260",
      "city": "Faedis",
      "lat": "46.1375139000000",
      "lng": "13.3372885000000",
      "type": "671",
      "phone": "0432 728108"
   },
   {
      "id": "6695",
      "name": "Gradis'ciutta",
      "address": "",
      "city": "San Floriano del Collio",
      "lat": "45.9822617000000",
      "lng": "13.5876476000000",
      "type": "671",
      "phone": "0481 390237"
   },
   {
      "id": "7078",
      "name": "Marinig",
      "address": "Via Brolo, 41",
      "city": "Prepotto",
      "lat": "46.0456059000000",
      "lng": "13.4796089000000",
      "type": "671",
      "phone": "0432 713012"
   },
   {
      "id": "7240",
      "name": "Pizzulin",
      "address": "Via Brolo, 43",
      "city": "Prepotto",
      "lat": "46.0456059000000",
      "lng": "13.4796089000000",
      "type": "671",
      "phone": "0432 713425"
   },
   {
      "id": "7005",
      "name": "Stroppolatini",
      "address": "Strada di Prepotto, 21",
      "city": "Cividale del friuli",
      "lat": "46.0618497000000",
      "lng": "13.4496376000000",
      "type": "671",
      "phone": "0432 732623"
   },
   {
      "id": "6843",
      "name": "Antico Broilo",
      "address": "Via Brolo, 42",
      "city": "Prepotto",
      "lat": "46.0436356000000",
      "lng": "13.4789119000000",
      "type": "671",
      "phone": "0432 713082"
   },
   {
      "id": "7355",
      "name": "Venica & Venica",
      "address": "",
      "city": "Dolegna del Collio",
      "lat": "46.0347716000000",
      "lng": "13.4853158000000",
      "type": "671",
      "phone": "0481 61264"
   },
   {
      "id": "6404",
      "name": "Zorzettig",
      "address": "Strada Sant'Anna, 37",
      "city": "Cividale del Friuli",
      "lat": "46.0493990000000",
      "lng": "13.4588332000000",
      "type": "671",
      "phone": "0432 716156"
   },
   {
      "id": "6117",
      "name": "Aquila del Torre",
      "address": "Via Attimis, 25",
      "city": "Povoletto",
      "lat": "46.1622800000000",
      "lng": "13.2803400000000",
      "type": "671",
      "phone": "0432 666428"
   },
   {
      "id": "7155",
      "name": "Evangelos Paraschos",
      "address": "",
      "city": "San Floriano del Collio",
      "lat": "45.9706812000000",
      "lng": "13.5886205000000",
      "type": "671",
      "phone": "0481 884154"
   },
   {
      "id": "6765",
      "name": "Tenuta Stella",
      "address": "Via Sdencina, 1",
      "city": "Dolegna del Collio",
      "lat": "46.0314945000000",
      "lng": "13.4792881000000",
      "type": "671",
      "phone": "0481 639895"
   },
   {
      "id": "6293",
      "name": "Marco Sara",
      "address": "Via dei Monti, 3",
      "city": "Povoletto",
      "lat": "46.1669200000000",
      "lng": "13.2649170000000",
      "type": "671",
      "phone": "0432 666066"
   },
   {
      "id": "6070",
      "name": "La Sclusa",
      "address": "Via Strada di Sant'Anna, 7/2",
      "city": "Cividale del Friuli",
      "lat": "46.0426724000000",
      "lng": "13.4509719000000",
      "type": "671",
      "phone": "0432 716259"
   },
   {
      "id": "6757",
      "name": "Kabaj",
      "address": "Šlovrenc, 4",
      "city": "Brda",
      "lat": "46.0052444000000",
      "lng": "13.5127070000000",
      "type": "671",
      "phone": "+386 (0)5 3959560"
   },
   {
      "id": "6180",
      "name": "Paolo Rodaro",
      "address": "Via Cormons, 60",
      "city": "Cividale del Friuli",
      "lat": "46.0483527000000",
      "lng": "13.4373176000000",
      "type": "671",
      "phone": "0432 716066"
   },
   {
      "id": "6713",
      "name": "Reia",
      "address": "Neblo, 32",
      "city": "Brda",
      "lat": "46.0099133000000",
      "lng": "13.4961177000000",
      "type": "671",
      "phone": "+386 (0)31 632230"
   },
   {
      "id": "7076",
      "name": "Orlando e Didonè - La Cricca",
      "address": "",
      "city": "Prepotto",
      "lat": "46.0253782000000",
      "lng": "13.4694233000000",
      "type": "671",
      "phone": "327 5618717"
   },
   {
      "id": "7127",
      "name": "Emeran Reya",
      "address": "Kozana, 2",
      "city": "Brda",
      "lat": "45.9830849000000",
      "lng": "13.5387008000000",
      "type": "671",
      "phone": "+386 (0)41 403 629"
   },
   {
      "id": "6712",
      "name": "La Tunella",
      "address": "Via del Collio, 14",
      "city": "Premariacco",
      "lat": "46.0408500000000",
      "lng": "13.4368100000000",
      "type": "671",
      "phone": "0432 716030"
   },
   {
      "id": "7443",
      "name": "Zuani",
      "address": "",
      "city": "San Floriano del Collio",
      "lat": "45.9663320000000",
      "lng": "13.5582326000000",
      "type": "671",
      "phone": "0481 391432"
   },
   {
      "id": "6838",
      "name": "Pinat Marco",
      "address": "Via Tomadini, 27",
      "city": "Povoletto",
      "lat": "46.1154000000000",
      "lng": "13.2995850000000",
      "type": "671",
      "phone": "349 8125856"
   },
   {
      "id": "6624",
      "name": "Ermacora",
      "address": "Via Solzaredo, 9",
      "city": "Premariacco",
      "lat": "46.0427449000000",
      "lng": "13.4109100000000",
      "type": "671",
      "phone": "0432 716250"
   },
   {
      "id": "6554",
      "name": "Dorigo",
      "address": "Via Case Sparse Campo, 1",
      "city": "Premariacco",
      "lat": "46.0340588000000",
      "lng": "13.4222588000000",
      "type": "671",
      "phone": "0432 634161"
   },
   {
      "id": "7475",
      "name": "Rocca Bernarda",
      "address": "Via Rocca Bernarda, 27",
      "city": "Premariacco",
      "lat": "46.0210868000000",
      "lng": "13.4331018000000",
      "type": "671",
      "phone": "0432 716914"
   },
   {
      "id": "6788",
      "name": "Roberto Scubla",
      "address": "Via Rocca Bernarda, 22",
      "city": "Premariacco",
      "lat": "46.0210868000000",
      "lng": "13.4331018000000",
      "type": "671",
      "phone": "0432 716258"
   },
   {
      "id": "6785",
      "name": "Gigante",
      "address": "Via Rocca Bernarda, 3",
      "city": "Corno di Rosazzo",
      "lat": "46.0172010000000",
      "lng": "13.4345730000000",
      "type": "671",
      "phone": "0432 755835"
   },
   {
      "id": "6144",
      "name": "Edi Keber",
      "address": "",
      "city": "Cormons",
      "lat": "45.9737151000000",
      "lng": "13.5036406000000",
      "type": "671",
      "phone": "0481 61184"
   },
   {
      "id": "7040",
      "name": "Franco Toros",
      "address": "",
      "city": "Cormons",
      "lat": "45.9741122000000",
      "lng": "13.4984837000000",
      "type": "671",
      "phone": "0481 61327"
   },
   {
      "id": "7180",
      "name": "Jermann",
      "address": "Località Trussio, 11",
      "city": "Dolegna del Collio",
      "lat": "45.9890924000000",
      "lng": "13.4698398000000",
      "type": "671",
      "phone": "0481 888080"
   },
   {
      "id": "6619",
      "name": "Valentino Butussi",
      "address": "Via Pra' di Corte, 1",
      "city": "Corno di Rosazzo",
      "lat": "46.0051334000000",
      "lng": "13.4381785000000",
      "type": "671",
      "phone": "0432 759194"
   },
   {
      "id": "6169",
      "name": "Kurtin",
      "address": "Località Novali, 9",
      "city": "Cormons",
      "lat": "45.9730200000000",
      "lng": "13.4892400000000",
      "type": "671",
      "phone": "0481 60685"
   },
   {
      "id": "6887",
      "name": "I Clivi",
      "address": "",
      "city": "Corno di Rosazzo",
      "lat": "45.9990472000000",
      "lng": "13.4448363000000",
      "type": "671",
      "phone": "328 7269979"
   },
   {
      "id": "7490",
      "name": "Canus",
      "address": "Via Gramogliano, 21",
      "city": "Corno di Rosazzo",
      "lat": "45.9990472000000",
      "lng": "13.4448363000000",
      "type": "671",
      "phone": "0432 759427"
   },
   {
      "id": "7071",
      "name": "Visintini",
      "address": "Via Gramogliano, 27",
      "city": "Corno di Rosazzo",
      "lat": "45.9990472000000",
      "lng": "13.4448363000000",
      "type": "671",
      "phone": "0432 755813"
   },
   {
      "id": "6655",
      "name": "Steras",
      "address": "Šared, 43",
      "city": "Izola",
      "lat": "46.2259177000000",
      "lng": "13.1033646000000",
      "type": "671",
      "phone": "+386 (0)41 788173"
   },
   {
      "id": "6710",
      "name": "Eugenio Collavini",
      "address": "Via della Ribolla Gialla, 2",
      "city": "Corno di Rosazzo",
      "lat": "45.9937713000000",
      "lng": "13.4434006000000",
      "type": "671",
      "phone": "0432 753222"
   },
   {
      "id": "6587",
      "name": "Villa Russiz",
      "address": "Via Russiz, 4-6",
      "city": "Capriva del Friuli",
      "lat": "45.9490142000000",
      "lng": "13.5121224000000",
      "type": "671",
      "phone": "0481 80047"
   },
   {
      "id": "6798",
      "name": "Simon di Brazzan",
      "address": "Via San Rocco, 17",
      "city": "Cormons",
      "lat": "45.9787869000000",
      "lng": "13.4530680000000",
      "type": "671",
      "phone": "0481 61182"
   },
   {
      "id": "7318",
      "name": "Tenuta Baroni del Mestri",
      "address": "Salita al Monte Quarin, 22",
      "city": "Cormons",
      "lat": "45.9665790000000",
      "lng": "13.4736622000000",
      "type": "671",
      "phone": "040 313177"
   },
   {
      "id": "6230",
      "name": "Castello di Spessa",
      "address": "Via Spessa, 1",
      "city": "Capriva del Friuli",
      "lat": "45.9483688000000",
      "lng": "13.5039510000000",
      "type": "671",
      "phone": "0481 60445"
   },
   {
      "id": "7111",
      "name": "Francesco Vosca",
      "address": "Via Sottomonte, 19",
      "city": "Cormons",
      "lat": "45.9732250000000",
      "lng": "13.4587980000000",
      "type": "671",
      "phone": "0481 62135"
   },
   {
      "id": "6549",
      "name": "Ronco dei Tassi",
      "address": "",
      "city": "Cormons",
      "lat": "45.9576030000000",
      "lng": "13.4846949000000",
      "type": "671",
      "phone": "0481 60155"
   },
   {
      "id": "7393",
      "name": "Livio Felluga",
      "address": "Via Risorgimento, 1",
      "city": "Cormons",
      "lat": "45.9725339000000",
      "lng": "13.4569616000000",
      "type": "671",
      "phone": "0481 60203"
   },
   {
      "id": "6256",
      "name": "Thomas Kitzmüller",
      "address": "Via XXIV Maggio, 56",
      "city": "Cormons",
      "lat": "45.9732483000000",
      "lng": "13.4556950000000",
      "type": "671",
      "phone": "0481 60853"
   },
   {
      "id": "6488",
      "name": "Dario Raccaro",
      "address": "Via San Giovanni, 87",
      "city": "Cormons",
      "lat": "45.9678090000000",
      "lng": "13.4641040000000",
      "type": "671",
      "phone": "0481 61425"
   },
   {
      "id": "6865",
      "name": "Borgo Savaian",
      "address": "Via Savaian, 36",
      "city": "Cormons",
      "lat": "45.9668530000000",
      "lng": "13.4637103000000",
      "type": "671",
      "phone": "0481 60725"
   },
   {
      "id": "6097",
      "name": "Lis Neris",
      "address": "Via Gavinana, 5",
      "city": "San Lorenzo Isontino",
      "lat": "45.9294053000000",
      "lng": "13.5271034000000",
      "type": "671",
      "phone": "0481 80105"
   },
   {
      "id": "6821",
      "name": "Livon",
      "address": "Via Montarezza, 33",
      "city": "San Giovanni al Natisone",
      "lat": "45.9843898000000",
      "lng": "13.4309531000000",
      "type": "671",
      "phone": "0432 757173"
   },
   {
      "id": "6789",
      "name": "Borgo San Daniele",
      "address": "Via San Daniele, 28",
      "city": "Cormons",
      "lat": "45.9635470000000",
      "lng": "13.4638500000000",
      "type": "671",
      "phone": "0481 60552"
   },
   {
      "id": "7189",
      "name": "Davide Feresin",
      "address": "",
      "city": "Cormons",
      "lat": "45.9612252000000",
      "lng": "13.4621709000000",
      "type": "671",
      "phone": "0481 630032"
   },
   {
      "id": "7293",
      "name": "Drius",
      "address": "Via Filanda, 100",
      "city": "Cormons",
      "lat": "45.9581350000000",
      "lng": "13.4558010000000",
      "type": "671",
      "phone": "0481 60998"
   },
   {
      "id": "6758",
      "name": "Borgo Conventi",
      "address": "Strada della Colombara, 13",
      "city": "Farra d’Isonzo",
      "lat": "45.9135304000000",
      "lng": "13.5280001000000",
      "type": "671",
      "phone": "0481 888004"
   },
   {
      "id": "7011",
      "name": "Flavio Pontoni",
      "address": "Via Peruzzi, 8",
      "city": "Buttrio",
      "lat": "46.0208198000000",
      "lng": "13.3394668000000",
      "type": "671",
      "phone": "0432 674352"
   },
   {
      "id": "6947",
      "name": "Silvano Ferlat",
      "address": "Via Savaian, 1",
      "city": "Cormons",
      "lat": "45.9447324000000",
      "lng": "13.4625904000000",
      "type": "671",
      "phone": "0481 61367"
   },
   {
      "id": "6321",
      "name": "Giorgio Colutta - Bandut",
      "address": "Via Orsaria, 32",
      "city": "Manzano",
      "lat": "45.9929640000000",
      "lng": "13.3790799000000",
      "type": "671",
      "phone": "0432 740315"
   },
   {
      "id": "6715",
      "name": "Butul",
      "address": "Manžan, 10/d",
      "city": "Koper",
      "lat": "45.9888416000000",
      "lng": "13.3763436000000",
      "type": "671",
      "phone": "+386 (0)41 718219"
   },
   {
      "id": "6929",
      "name": "Petrucco",
      "address": "Via Morpurgo, 12",
      "city": "Buttrio",
      "lat": "46.0136689000000",
      "lng": "13.3344422000000",
      "type": "671",
      "phone": "0432 674387"
   },
   {
      "id": "7113",
      "name": "Tenuta Luisa",
      "address": "Via Campo Sportivo, 13",
      "city": "Mariano del Friuli",
      "lat": "45.9184600000000",
      "lng": "13.4784100000000",
      "type": "671",
      "phone": "0481 69680"
   },
   {
      "id": "6999",
      "name": "Vignai da Duline",
      "address": "Via IV Novembre, 136",
      "city": "San Giovanni al Natisone",
      "lat": "45.9531491000000",
      "lng": "13.4157537000000",
      "type": "671",
      "phone": "0432 758115"
   },
   {
      "id": "7423",
      "name": "Brandolin",
      "address": "Via Leonardo da Vinci, 42",
      "city": "Mariano del Friuli",
      "lat": "45.9174897000000",
      "lng": "13.4613223000000",
      "type": "671",
      "phone": ""
   },
   {
      "id": "7199",
      "name": "Vie di Romans",
      "address": "",
      "city": "Mariano del Friuli",
      "lat": "45.9065690000000",
      "lng": "13.4523297000000",
      "type": "671",
      "phone": "0481 69600"
   },
   {
      "id": "7213",
      "name": "Kante",
      "address": "",
      "city": "Duino Aurisina",
      "lat": "45.7649649000000",
      "lng": "13.6919521000000",
      "type": "671",
      "phone": "040 200255"
   },
   {
      "id": "6781",
      "name": "Lupinc",
      "address": "",
      "city": "Duino Aurisina",
      "lat": "45.7628537000000",
      "lng": "13.6938777000000",
      "type": "671",
      "phone": "345 7171274"
   },
   {
      "id": "6430",
      "name": "Castelvecchio",
      "address": "",
      "city": "Sagrado",
      "lat": "45.8736900000000",
      "lng": "13.4842500000000",
      "type": "671",
      "phone": "0481 99742"
   },
   {
      "id": "6691",
      "name": "Scarbolo",
      "address": "Viale Grado, 4",
      "city": "Pavia di Udine",
      "lat": "45.9934889000000",
      "lng": "13.2749411000000",
      "type": "671",
      "phone": "0432 675612"
   },
   {
      "id": "6363",
      "name": "Parovel",
      "address": "",
      "city": "San Dorligo della Valle",
      "lat": "45.6154655000000",
      "lng": "13.8548602000000",
      "type": "671",
      "phone": "040 227050"
   },
   {
      "id": "6572",
      "name": "Tenuta Beltrame",
      "address": "Località Antonini, 4",
      "city": "Bagnaria Arsa",
      "lat": "45.8802460000000",
      "lng": "13.3222900000000",
      "type": "671",
      "phone": "0432 923670"
   },
   {
      "id": "7234",
      "name": "Di Lenardo",
      "address": "Piazza Battisti, 1",
      "city": "Gonars",
      "lat": "45.8997466000000",
      "lng": "13.2749432000000",
      "type": "671",
      "phone": "0432 928633"
   },
   {
      "id": "7172",
      "name": "Vitas",
      "address": "Via San Marco, 5",
      "city": "Cervignano del Friuli",
      "lat": "45.8617849000000",
      "lng": "13.3223825000000",
      "type": "671",
      "phone": "0431 93083"
   },
   {
      "id": "6561",
      "name": "Rado Kocjančič",
      "address": "",
      "city": "San Dorligo della Valle",
      "lat": "45.6003043000000",
      "lng": "13.8276866000000",
      "type": "671",
      "phone": "348 3063298"
   },
   {
      "id": "6410",
      "name": "Tarlao Vignis in Aquileia",
      "address": "Via San Zili, 50",
      "city": "Aquileia",
      "lat": "45.7962571000000",
      "lng": "13.3871842000000",
      "type": "671",
      "phone": "0431 91417"
   },
   {
      "id": "7036",
      "name": "Bessererhof",
      "address": "Via Novale di Presule, 10",
      "city": "Fiè allo Sciliar/Völs am Schlern",
      "lat": "46.7534038000000",
      "lng": "12.0894724000000",
      "type": "671",
      "phone": "0471 601011"
   },
   {
      "id": "7110",
      "name": "Gumphof - Markus Prackwieser",
      "address": "",
      "city": "Fiè allo Sciliar/Völs am Schlern",
      "lat": "46.7534038000000",
      "lng": "12.0894724000000",
      "type": "671",
      "phone": "0471 601190"
   },
   {
      "id": "7448",
      "name": "Borgo delle Oche",
      "address": "Via Borgo Alpi, 5",
      "city": "Valvasone Arzene",
      "lat": "45.9979019000000",
      "lng": "12.8641246000000",
      "type": "671",
      "phone": "0434 840640"
   },
   {
      "id": "7095",
      "name": "Bortolusso",
      "address": "Via Oltregorgo, 10",
      "city": "Carlino",
      "lat": "45.7756652000000",
      "lng": "13.1715342000000",
      "type": "671",
      "phone": "0431 67596"
   },
   {
      "id": "6456",
      "name": "Rive Col de Fer",
      "address": "Via Col de Fer, 14",
      "city": "Caneva",
      "lat": "45.9805032000000",
      "lng": "12.4611984000000",
      "type": "671",
      "phone": "0434 799467"
   },
   {
      "id": "7218",
      "name": "A Mi Manera",
      "address": "Via Caduti Per La Patria, 19",
      "city": "Portogruaro",
      "lat": "45.7542213000000",
      "lng": "12.7507746000000",
      "type": "671",
      "phone": "0421 704644"
   },
   {
      "id": "6733",
      "name": "Vistorta",
      "address": "Via Vistorta, 82",
      "city": "Sacile",
      "lat": "45.9364925000000",
      "lng": "12.4735817000000",
      "type": "671",
      "phone": "0434 71135"
   },
   {
      "id": "6985",
      "name": "Abbazia di Novacella",
      "address": "Via dell'Abbazia, 1",
      "city": "Varna/Vahrn",
      "lat": "46.7423199000000",
      "lng": "11.6487423000000",
      "type": "671",
      "phone": "0472 836189"
   },
   {
      "id": "6698",
      "name": "Taschlerhof - Peter Wachtler",
      "address": "",
      "city": "Bressanone/Brixen",
      "lat": "46.6864558000000",
      "lng": "11.6278106000000",
      "type": "671",
      "phone": "0472 851091"
   },
   {
      "id": "7267",
      "name": "Garlider - Christian Kerschbaumer",
      "address": "Via Untrum, 20",
      "city": "Velturno/Feldthurns",
      "lat": "46.6601071000000",
      "lng": "11.5989186000000",
      "type": "671",
      "phone": "0472 847296"
   },
   {
      "id": "6904",
      "name": "L'Antica Quercia",
      "address": "Via Cal di Sopra, 8",
      "city": "Conegliano",
      "lat": "45.9412100000000",
      "lng": "12.3015080000000",
      "type": "671",
      "phone": "0438 789344"
   },
   {
      "id": "6198",
      "name": "Cantina Valle Isarco",
      "address": "Via Coste, 50",
      "city": "Chiusa/Klausen",
      "lat": "46.6481448000000",
      "lng": "11.5843731000000",
      "type": "671",
      "phone": "0472 847553"
   },
   {
      "id": "6130",
      "name": "BiancaVigna",
      "address": "Via Montenero, 8/c",
      "city": "Conegliano",
      "lat": "45.9208700000000",
      "lng": "12.2986600000000",
      "type": "671",
      "phone": "0438 788403"
   },
   {
      "id": "7072",
      "name": "Tessère",
      "address": "Via Bassette, 51",
      "city": "Noventa di Piave",
      "lat": "45.6701419000000",
      "lng": "12.5766787000000",
      "type": "671",
      "phone": "0421 320438"
   },
   {
      "id": "7303",
      "name": "Casa Belfi",
      "address": "Via Guizza, 28",
      "city": "San Polo di Piave",
      "lat": "45.7813389000000",
      "lng": "12.3937108000000",
      "type": "671",
      "phone": "338 4107723"
   },
   {
      "id": "6939",
      "name": "Bonotto delle Tezze",
      "address": "Via Duca D'Aosta, 36",
      "city": "Vazzola",
      "lat": "45.8160079000000",
      "lng": "12.3466380000000",
      "type": "671",
      "phone": "0438 488323"
   },
   {
      "id": "7140",
      "name": "Italo Cescon",
      "address": "Piazza dei Caduti, 3",
      "city": "Ormelle",
      "lat": "45.7572351000000",
      "lng": "12.4127913000000",
      "type": "671",
      "phone": "0422 851033"
   },
   {
      "id": "7065",
      "name": "Giorgio Cecchetto",
      "address": "Via Piave, 67",
      "city": "Vazzola",
      "lat": "45.8044824000000",
      "lng": "12.3441836000000",
      "type": "671",
      "phone": "0438 28598"
   },
   {
      "id": "6916",
      "name": "Gregoletto",
      "address": "Via San Martino, 81/83",
      "city": "Miane",
      "lat": "45.9383471000000",
      "lng": "12.1267784000000",
      "type": "671",
      "phone": "0438 970463"
   },
   {
      "id": "6087",
      "name": "Malibràn",
      "address": "Via Barca II, 63",
      "city": "Susegana",
      "lat": "45.8417815000000",
      "lng": "12.2330511000000",
      "type": "671",
      "phone": "0438 781410"
   },
   {
      "id": "6679",
      "name": "Marchiori",
      "address": "Via Rialto, 3",
      "city": "Farra di Soligo",
      "lat": "45.9055343000000",
      "lng": "12.1226261000000",
      "type": "671",
      "phone": "0438 801333"
   },
   {
      "id": "6732",
      "name": "Serafini & Vidotto",
      "address": "Via Luigi Carrer, 8/12",
      "city": "Nervesa della Battaglia",
      "lat": "45.8273600000000",
      "lng": "12.2040800000000",
      "type": "671",
      "phone": "0422 773281"
   },
   {
      "id": "6783",
      "name": "Mongarda",
      "address": "Via Canal Nuovo, 8",
      "city": "Farra di Soligo",
      "lat": "45.8972917000000",
      "lng": "12.0876424000000",
      "type": "671",
      "phone": "0438 989168"
   },
   {
      "id": "6399",
      "name": "Casa Coste Piane",
      "address": "Via Coste Piane, 2",
      "city": "Valdobbiadene",
      "lat": "45.9057550000000",
      "lng": "12.0463430000000",
      "type": "671",
      "phone": "0423 900219"
   },
   {
      "id": "6719",
      "name": "Le Colture",
      "address": "Via Follo, 5",
      "city": "Valdobbiadene",
      "lat": "45.9028500000000",
      "lng": "12.0371000000000",
      "type": "671",
      "phone": "0423 900192"
   },
   {
      "id": "6836",
      "name": "Follador Francesco",
      "address": "Via Vettorazzi e Bisol, 6",
      "city": "Valdobbiadene",
      "lat": "45.9010708000000",
      "lng": "12.0374111000000",
      "type": "671",
      "phone": "0423 900579"
   },
   {
      "id": "6951",
      "name": "Garbara",
      "address": "Via Menegazzi, 19",
      "city": "Valdobbiadene",
      "lat": "45.9021151000000",
      "lng": "12.0355851000000",
      "type": "671",
      "phone": "0423 900155"
   },
   {
      "id": "6469",
      "name": "Silvano Follador",
      "address": "Via Callonga, 11",
      "city": "Valdobbiadene",
      "lat": "45.8950249000000",
      "lng": "12.0399429000000",
      "type": "671",
      "phone": "0423 900295"
   },
   {
      "id": "7436",
      "name": "Miotto",
      "address": "Via Scandolera, 34",
      "city": "Vidor",
      "lat": "45.8783000000000",
      "lng": "12.0484000000000",
      "type": "671",
      "phone": "0423 985095"
   },
   {
      "id": "7312",
      "name": "Nicos Brustolin",
      "address": "Via Calle Lunga, 12/a",
      "city": "Vidor",
      "lat": "45.8772600000000",
      "lng": "12.0469816000000",
      "type": "671",
      "phone": "0423 989868"
   },
   {
      "id": "6291",
      "name": "Sorelle Bronca",
      "address": "Via Martiri, 20",
      "city": "Vidor",
      "lat": "45.8779100000000",
      "lng": "12.0444000000000",
      "type": "671",
      "phone": "0423 987201"
   },
   {
      "id": "7401",
      "name": "Frozza",
      "address": "Via Martiri, 30",
      "city": "Vidor",
      "lat": "45.8781544000000",
      "lng": "12.0435431000000",
      "type": "671",
      "phone": "0423 987069"
   },
   {
      "id": "6683",
      "name": "Bastia - Michele Rebuli",
      "address": "Strada di Saccol, 30",
      "city": "Valdobbiadene",
      "lat": "45.8941820000000",
      "lng": "12.0227220000000",
      "type": "671",
      "phone": "0423 975113"
   },
   {
      "id": "7173",
      "name": "Adami",
      "address": "Via Rovede, 27",
      "city": "Vidor",
      "lat": "45.8780700000000",
      "lng": "12.0340430000000",
      "type": "671",
      "phone": "0423 982110"
   },
   {
      "id": "7420",
      "name": "Ida Agnoletti",
      "address": "Via Saccardo, 55",
      "city": "Volpago del Montello",
      "lat": "45.7899109000000",
      "lng": "12.1424041000000",
      "type": "671",
      "phone": "333 7166494"
   },
   {
      "id": "6358",
      "name": "Col del Lupo",
      "address": "Via Rovede, 37",
      "city": "Vidor",
      "lat": "45.8772106000000",
      "lng": "12.0333501000000",
      "type": "671",
      "phone": "347 9004278"
   },
   {
      "id": "6307",
      "name": "Ca' dei Zago",
      "address": "Via Roccolo, 6",
      "city": "Valdobbiadene",
      "lat": "45.8935800000000",
      "lng": "12.0045100000000",
      "type": "671",
      "phone": "0423 975395"
   },
   {
      "id": "6240",
      "name": "Bortolomiol",
      "address": "Via Garibaldi, 142",
      "city": "Valdobbiadene",
      "lat": "45.8978165000000",
      "lng": "11.9850305000000",
      "type": "671",
      "phone": "0423 974911"
   },
   {
      "id": "6828",
      "name": "Ruggeri",
      "address": "Via Pra' Fontana, 4",
      "city": "Valdobbiadene",
      "lat": "45.8802511000000",
      "lng": "12.0050974000000",
      "type": "671",
      "phone": "0423 9092"
   },
   {
      "id": "6634",
      "name": "Le Bertole",
      "address": "Via Europa, 20",
      "city": "Valdobbiadene",
      "lat": "45.8873433000000",
      "lng": "11.9931343000000",
      "type": "671",
      "phone": "0423 975332"
   },
   {
      "id": "7350",
      "name": "Loacker",
      "address": "",
      "city": "Bolzano/Bozen",
      "lat": "46.4989776000000",
      "lng": "11.3882143000000",
      "type": "671",
      "phone": "0471 365125"
   },
   {
      "id": "7276",
      "name": "Griesbauerhof - Georg Mumelter",
      "address": "Via Rencio, 66",
      "city": "Bolzano/Bozen",
      "lat": "46.4975457000000",
      "lng": "11.3780541000000",
      "type": "671",
      "phone": "0471 973090"
   },
   {
      "id": "7185",
      "name": "Glögglhof - Franz Gojer",
      "address": "Via Rivellone, 1",
      "city": "Bolzano/Bozen",
      "lat": "46.4996554000000",
      "lng": "11.3756562000000",
      "type": "671",
      "phone": "0471 978775"
   },
   {
      "id": "6346",
      "name": "Untermoserhof - Georg Ramoser",
      "address": "Via Santa Maddalena di Sotto, 36",
      "city": "Bolzano/Bozen",
      "lat": "46.5011376000000",
      "lng": "11.3744594000000",
      "type": "671",
      "phone": "0471 975481"
   },
   {
      "id": "7432",
      "name": "Messnerhof - Bernhard Pichler",
      "address": "Via San Pietro, 7",
      "city": "Bolzano/Bozen",
      "lat": "46.5116654000000",
      "lng": "11.3550706000000",
      "type": "671",
      "phone": "0471 977162"
   },
   {
      "id": "6537",
      "name": "Nusserhof - Heinrich Mayr",
      "address": "Via Josef Mayr-Nusser, 72",
      "city": "Bolzano/Bozen",
      "lat": "46.4931285000000",
      "lng": "11.3684188000000",
      "type": "671",
      "phone": "0471 978388"
   },
   {
      "id": "6996",
      "name": "Cantina Convento Muri-Gries",
      "address": "Piazza Gries, 21",
      "city": "Bolzano/Bozen",
      "lat": "46.5031498000000",
      "lng": "11.3348928000000",
      "type": "671",
      "phone": "0471 282287"
   },
   {
      "id": "7174",
      "name": "Reyter",
      "address": "Via Eisenkeller, 14/b",
      "city": "Bolzano/Bozen",
      "lat": "46.5001020000000",
      "lng": "11.3235590000000",
      "type": "671",
      "phone": "0471 271368"
   },
   {
      "id": "7050",
      "name": "Cantina di Bolzano",
      "address": "Via San Maurizio, 36",
      "city": "Bolzano/Bozen",
      "lat": "46.5013410000000",
      "lng": "11.3117011000000",
      "type": "671",
      "phone": "0471 270909"
   },
   {
      "id": "7483",
      "name": "Martignago",
      "address": "Via Cornuda, 72",
      "city": "Maser",
      "lat": "45.8153934000000",
      "lng": "11.9834879000000",
      "type": "671",
      "phone": "388 6950328"
   },
   {
      "id": "6684",
      "name": "Cantina Terlano",
      "address": "Via Silberleiten, 7",
      "city": "Terlano/Terlan",
      "lat": "46.5308839000000",
      "lng": "11.2516954000000",
      "type": "671",
      "phone": "0471 257135"
   },
   {
      "id": "6617",
      "name": "Cantina Andriano",
      "address": "Via Silberleiten, 7",
      "city": "Terlano/Terlan",
      "lat": "46.5308839000000",
      "lng": "11.2516954000000",
      "type": "671",
      "phone": "0471 257156"
   },
   {
      "id": "6271",
      "name": "Cantina Colterenzio",
      "address": "Strada del Vino, 8",
      "city": "Appiano/Eppan",
      "lat": "46.4639118000000",
      "lng": "11.2883434000000",
      "type": "671",
      "phone": "0471 664246"
   },
   {
      "id": "6359",
      "name": "Cantina Girlan",
      "address": "Via San Martino, 24",
      "city": "Appiano/Eppan",
      "lat": "46.4618701000000",
      "lng": "11.2834829000000",
      "type": "671",
      "phone": "0471 662403"
   },
   {
      "id": "6394",
      "name": "Bele Casel",
      "address": "Via Moresca, 136/c",
      "city": "Caerano di San Marco",
      "lat": "45.7594390000000",
      "lng": "11.9841090000000",
      "type": "671",
      "phone": "0423 859795"
   },
   {
      "id": "7366",
      "name": "Cantina Nals Margreid",
      "address": "Via Heiligenberg, 2",
      "city": "Nalles/Nals",
      "lat": "46.5388556000000",
      "lng": "11.2039243000000",
      "type": "671",
      "phone": "0471 678626"
   },
   {
      "id": "7087",
      "name": "Kettmeir",
      "address": "Via Cantine, 4",
      "city": "Caldaro/Kaltern",
      "lat": "46.4167700000000",
      "lng": "11.2508600000000",
      "type": "671",
      "phone": "0471 963135"
   },
   {
      "id": "6314",
      "name": "Ferruccio Carlotto",
      "address": "Via Clauser, 19",
      "city": "Ora/Auer",
      "lat": "46.3442873000000",
      "lng": "11.2978858000000",
      "type": "671",
      "phone": "0471 810407"
   },
   {
      "id": "6102",
      "name": "Weingut Niklas",
      "address": "Via Fontane, 31/a",
      "city": "Caldaro/Kaltern",
      "lat": "46.4188528000000",
      "lng": "11.2344095000000",
      "type": "671",
      "phone": "0471 963434"
   },
   {
      "id": "7464",
      "name": "Pfitscher",
      "address": "Via Dolomiti, 17",
      "city": "Montagna/Montan",
      "lat": "46.3324709000000",
      "lng": "11.2974509000000",
      "type": "671",
      "phone": "0471 1681317"
   },
   {
      "id": "7389",
      "name": "Franz Haas",
      "address": "Via Villa, 6",
      "city": "Montagna/Montan",
      "lat": "46.3220608000000",
      "lng": "11.2880419000000",
      "type": "671",
      "phone": "0471 812280"
   },
   {
      "id": "6855",
      "name": "Glassierhof - Stefan Vaja",
      "address": "Via Villa, 13",
      "city": "Egna/Neumarkt",
      "lat": "46.3235187000000",
      "lng": "11.2798745000000",
      "type": "671",
      "phone": "335 1031673"
   },
   {
      "id": "6839",
      "name": "Cantina Tramin",
      "address": "Strada del Vino, 144",
      "city": "Termeno/Tramin",
      "lat": "46.3450934000000",
      "lng": "11.2517434000000",
      "type": "671",
      "phone": "0471 096633"
   },
   {
      "id": "6308",
      "name": "Calalta",
      "address": "Via Giaretta, 10",
      "city": "Mussolente",
      "lat": "45.7808900000000",
      "lng": "11.8195300000000",
      "type": "671",
      "phone": "0424 87565"
   },
   {
      "id": "6475",
      "name": "Gottardi",
      "address": "Via degli Alpini, 17",
      "city": "Egna/Neumarkt",
      "lat": "46.3073132000000",
      "lng": "11.2820400000000",
      "type": "671",
      "phone": "0471 812773"
   },
   {
      "id": "6911",
      "name": "Elena Walch",
      "address": "Via Andreas Hofer, 1",
      "city": "Termeno/Tramin",
      "lat": "46.3384740000000",
      "lng": "11.2384403000000",
      "type": "671",
      "phone": "0471 860172"
   },
   {
      "id": "6325",
      "name": "Baron Widmann",
      "address": "Via Endergasse, 3",
      "city": "Cortaccia/Kurtatsch",
      "lat": "46.3126505000000",
      "lng": "11.2214678000000",
      "type": "671",
      "phone": "0471 880092"
   },
   {
      "id": "6412",
      "name": "Cantina Cortaccia",
      "address": "Strada del Vino, 23",
      "city": "Cortaccia/Kurtatsch",
      "lat": "46.3048802000000",
      "lng": "11.2198234000000",
      "type": "671",
      "phone": "0471 880115"
   },
   {
      "id": "6660",
      "name": "Castelfeder",
      "address": "Via Franz Harpf, 15",
      "city": "Egna/Neumarkt",
      "lat": "46.2682502000000",
      "lng": "11.2196634000000",
      "type": "671",
      "phone": "0471 820420"
   },
   {
      "id": "6670",
      "name": "Vigneto Due Santi",
      "address": "Viale Asiago, 174",
      "city": "Bassano del Grappa",
      "lat": "45.7710045000000",
      "lng": "11.7063660000000",
      "type": "671",
      "phone": "0424 502074"
   },
   {
      "id": "6540",
      "name": "Haderburg",
      "address": "Via Albert Düren, 3",
      "city": "Salorno/Salurn",
      "lat": "46.2393458000000",
      "lng": "11.2181898000000",
      "type": "671",
      "phone": "0471 889097"
   },
   {
      "id": "7465",
      "name": "Marinushof",
      "address": "Strada Vecchia, 9/b",
      "city": "Castelbello Ciardes/Kastelbell Tschars",
      "lat": "46.6267130000000",
      "lng": "10.9015868000000",
      "type": "671",
      "phone": "0473 624717"
   },
   {
      "id": "6714",
      "name": "Vin de la Neu",
      "address": "Via San Romedio, 8",
      "city": "Predaia",
      "lat": "46.3495533000000",
      "lng": "11.0954633000000",
      "type": "671",
      "phone": "347 4116854"
   },
   {
      "id": "6234",
      "name": "El Zeremia",
      "address": "Via IV Novembre, 15",
      "city": "Novella",
      "lat": "46.3919356000000",
      "lng": "11.0554362000000",
      "type": "671",
      "phone": "0463 432271"
   },
   {
      "id": "6569",
      "name": "Cembra - Cantina di Montagna",
      "address": "Viale IV Novembre, 72",
      "city": "Cembra Lisignago",
      "lat": "46.1755432000000",
      "lng": "11.2233049000000",
      "type": "671",
      "phone": "0461 680010"
   },
   {
      "id": "7022",
      "name": "Cembrani DOC",
      "address": "Viale IV Novembre, 52",
      "city": "Cembra Lisignago",
      "lat": "46.1748100000000",
      "lng": "11.2212099000000",
      "type": "671",
      "phone": "0461 090906"
   },
   {
      "id": "6731",
      "name": "Zanotelli Elio & F.lli",
      "address": "Viale IV Novembre, 52",
      "city": "Cembra Lisignago",
      "lat": "46.1748100000000",
      "lng": "11.2212099000000",
      "type": "671",
      "phone": "0461 683131"
   },
   {
      "id": "7438",
      "name": "Corvée",
      "address": "Località Bedin, 1",
      "city": "Cembra Lisignago",
      "lat": "46.1648243000000",
      "lng": "11.2040356000000",
      "type": "671",
      "phone": "344 0260170"
   },
   {
      "id": "6998",
      "name": "Pojer & Sandri",
      "address": "",
      "city": "Faedo",
      "lat": "46.1927644000000",
      "lng": "11.1556550000000",
      "type": "671",
      "phone": "0461 650342"
   },
   {
      "id": "6560",
      "name": "Endrizzi",
      "address": "",
      "city": "San Michele all'Adige",
      "lat": "46.2047246000000",
      "lng": "11.1435780000000",
      "type": "671",
      "phone": "0461 650129"
   },
   {
      "id": "7288",
      "name": "Dorigati",
      "address": "Via Dante, 5",
      "city": "Mezzocorona",
      "lat": "46.2158519000000",
      "lng": "11.1186882000000",
      "type": "671",
      "phone": "0461 605313"
   },
   {
      "id": "7242",
      "name": "Marco Donati",
      "address": "Via Cesare Battisti, 41",
      "city": "Mezzocorona",
      "lat": "46.2149176000000",
      "lng": "11.1147914000000",
      "type": "671",
      "phone": "0461 604141"
   },
   {
      "id": "7360",
      "name": "Cantina Romanese",
      "address": "Strada Provinciale 11, 52",
      "city": "Levico Terme",
      "lat": "46.0177652000000",
      "lng": "11.2967121000000",
      "type": "671",
      "phone": "347 3817590"
   },
   {
      "id": "6055",
      "name": "Andrea Martinelli",
      "address": "Via del Castello, 10",
      "city": "Mezzocorona",
      "lat": "46.2178846000000",
      "lng": "11.1109601000000",
      "type": "671",
      "phone": "338 8288686"
   },
   {
      "id": "6707",
      "name": "Roberto Zeni Schwarzhof",
      "address": "Via Stretta, 2",
      "city": "San Michele all'Adige",
      "lat": "46.1943492000000",
      "lng": "11.1306342000000",
      "type": "671",
      "phone": "0461 650456"
   },
   {
      "id": "6347",
      "name": "Villa Corniole",
      "address": "Via al Grec’, 23",
      "city": "Giovo",
      "lat": "46.1581586000000",
      "lng": "11.1556114000000",
      "type": "671",
      "phone": "0461 695067"
   },
   {
      "id": "7001",
      "name": "De Vigili",
      "address": "Via Molini, 28",
      "city": "Mezzolombardo",
      "lat": "46.2200708000000",
      "lng": "11.0940361000000",
      "type": "671",
      "phone": "349 5543239"
   },
   {
      "id": "6068",
      "name": "Redondel",
      "address": "Via Roma, 28",
      "city": "Mezzolombardo",
      "lat": "46.2102600000000",
      "lng": "11.0921640000000",
      "type": "671",
      "phone": "0461 605861"
   },
   {
      "id": "6800",
      "name": "Ca' Biasi",
      "address": "Via Fratte, 12",
      "city": "Breganze",
      "lat": "45.7209073000000",
      "lng": "11.5824367000000",
      "type": "671",
      "phone": "0445 851069"
   },
   {
      "id": "6152",
      "name": "Maso Grener",
      "address": "Località Masi, 21",
      "city": "Lavis",
      "lat": "46.1580600000000",
      "lng": "11.1143230000000",
      "type": "671",
      "phone": "0461 871514"
   },
   {
      "id": "6486",
      "name": "Villa Persani - Silvano Clementi",
      "address": "Via Marconi, 13",
      "city": "Lavis",
      "lat": "46.1533299000000",
      "lng": "11.1074300000000",
      "type": "671",
      "phone": "349 3605561"
   },
   {
      "id": "7476",
      "name": "Vignaiolo Fanti",
      "address": "Piazza della Croce, 3",
      "city": "Lavis",
      "lat": "46.1533600000000",
      "lng": "11.1067800000000",
      "type": "671",
      "phone": "0461 240809"
   },
   {
      "id": "6769",
      "name": "Maculan",
      "address": "Via Castelletto, 3",
      "city": "Breganze",
      "lat": "45.7083000000000",
      "lng": "11.5623500000000",
      "type": "671",
      "phone": "0445 873733"
   },
   {
      "id": "6369",
      "name": "Maso Furli",
      "address": "Via Furli, 32",
      "city": "Lavis",
      "lat": "46.1466024000000",
      "lng": "11.1110530000000",
      "type": "671",
      "phone": "0461 240667"
   },
   {
      "id": "6810",
      "name": "Cantine Monfort",
      "address": "Via Carlo Sette, 21",
      "city": "Lavis",
      "lat": "46.1380108000000",
      "lng": "11.1132013000000",
      "type": "671",
      "phone": "0461 246353"
   },
   {
      "id": "7388",
      "name": "La Vis",
      "address": "Via del Carmine, 7",
      "city": "Lavis",
      "lat": "46.1377955000000",
      "lng": "11.1075308000000",
      "type": "671",
      "phone": "0461 440111"
   },
   {
      "id": "6946",
      "name": "Maso Bergamini",
      "address": "Frazione Cognola",
      "city": "Trento",
      "lat": "46.0846004000000",
      "lng": "11.1422694000000",
      "type": "671",
      "phone": "0461 983079"
   },
   {
      "id": "6775",
      "name": "Kornell - Florian Brigl",
      "address": "Via Cosimo e Damiano, 6",
      "city": "Terlano/Terlan",
      "lat": "46.0839751000000",
      "lng": "11.0989651000000",
      "type": "671",
      "phone": "0471 917507"
   },
   {
      "id": "6878",
      "name": "Ferrari",
      "address": "Via del Ponte di Ravina, 15",
      "city": "Trento",
      "lat": "46.0446820000000",
      "lng": "11.1123340000000",
      "type": "671",
      "phone": "0461 972416"
   },
   {
      "id": "7382",
      "name": "La Montecchia Conte Emo Capodilista",
      "address": "Via Montecchia, 16",
      "city": "Selvazzano Dentro",
      "lat": "45.3856954000000",
      "lng": "11.7623994000000",
      "type": "671",
      "phone": "049 637294"
   },
   {
      "id": "7265",
      "name": "Giovanni Poli",
      "address": "Via Del Lago, 3",
      "city": "Vallelaghi",
      "lat": "46.0688350000000",
      "lng": "10.9828820000000",
      "type": "671",
      "phone": "0461 864119"
   },
   {
      "id": "7193",
      "name": "Francesco Poli",
      "address": "",
      "city": "Vallelaghi",
      "lat": "46.0689403000000",
      "lng": "10.9822217000000",
      "type": "671",
      "phone": "0461 340090"
   },
   {
      "id": "7096",
      "name": "Mattiello",
      "address": "Via Volto, 57",
      "city": "Longare",
      "lat": "45.4686911000000",
      "lng": "11.6014128000000",
      "type": "671",
      "phone": "347 4125041"
   },
   {
      "id": "6393",
      "name": "Cantina Toblino",
      "address": "Via Longa, 1",
      "city": "Madruzzo",
      "lat": "46.0448503000000",
      "lng": "10.9524743000000",
      "type": "671",
      "phone": "0461 564168"
   },
   {
      "id": "7141",
      "name": "Salvetta",
      "address": "Via Rauten, 10",
      "city": "Madruzzo",
      "lat": "46.0451035000000",
      "lng": "10.9482061000000",
      "type": "671",
      "phone": "0461 231177"
   },
   {
      "id": "6576",
      "name": "Quota 101",
      "address": "Via Malterreno, 12",
      "city": "Torreglia",
      "lat": "45.3500788000000",
      "lng": "11.7241734000000",
      "type": "671",
      "phone": "0425 410922"
   },
   {
      "id": "6786",
      "name": "Eugenio Rosi",
      "address": "Via Tavernelle, 3/b",
      "city": "Volano",
      "lat": "45.9176159000000",
      "lng": "11.0659741000000",
      "type": "671",
      "phone": "0464 461375"
   },
   {
      "id": "6361",
      "name": "Balter",
      "address": "Via Vallunga II, 24",
      "city": "Rovereto",
      "lat": "45.9041053000000",
      "lng": "11.0524161000000",
      "type": "671",
      "phone": "0464 430101"
   },
   {
      "id": "7437",
      "name": "Masari",
      "address": "Contrada Bevilacqua, 2/a",
      "city": "Valdagno",
      "lat": "45.6630753000000",
      "lng": "11.2864754000000",
      "type": "671",
      "phone": "0445 410780"
   },
   {
      "id": "6495",
      "name": "Dalle Ore",
      "address": "Via San Nicolò, 84",
      "city": "Trissino",
      "lat": "45.5786319000000",
      "lng": "11.3606626000000",
      "type": "671",
      "phone": "0445 1925051"
   },
   {
      "id": "7177",
      "name": "De Tarczal",
      "address": "Vicolo Giovan Battista Miori, 4",
      "city": "Isera",
      "lat": "45.8958816000000",
      "lng": "11.0166259000000",
      "type": "671",
      "phone": "0464 409134"
   },
   {
      "id": "7216",
      "name": "Borin Vini e Vigne",
      "address": "Via dei Colli, 5",
      "city": "Monselice",
      "lat": "45.2699400000000",
      "lng": "11.7519700000000",
      "type": "671",
      "phone": "0429 74384"
   },
   {
      "id": "7290",
      "name": "Pegoraro",
      "address": "Via Calbin, 24",
      "city": "Barbarano Mossano",
      "lat": "45.4170572000000",
      "lng": "11.5531030000000",
      "type": "671",
      "phone": "0444 886461"
   },
   {
      "id": "6442",
      "name": "Letrari",
      "address": "Via Monte Baldo, 13-15",
      "city": "Rovereto",
      "lat": "45.8889700000000",
      "lng": "11.0199500000000",
      "type": "671",
      "phone": "0464 480200"
   },
   {
      "id": "6835",
      "name": "Ca' Lustra",
      "address": "Via San Pietro, 50",
      "city": "Cinto Euganeo",
      "lat": "45.3049106000000",
      "lng": "11.6950059000000",
      "type": "671",
      "phone": "0429 94128"
   },
   {
      "id": "6597",
      "name": "Vignalta",
      "address": "Via Scalette, 23",
      "city": "Arquà Petrarca",
      "lat": "45.2770420000000",
      "lng": "11.7051480000000",
      "type": "671",
      "phone": "0429 777305"
   },
   {
      "id": "7344",
      "name": "Sieman",
      "address": "Via Crocenera, 13",
      "city": "Villaga",
      "lat": "45.3936843000000",
      "lng": "11.5381237000000",
      "type": "671",
      "phone": "329 5677394"
   },
   {
      "id": "6310",
      "name": "Vigna Roda",
      "address": "Via Monte Versa, 1569",
      "city": "Vò",
      "lat": "45.3120033000000",
      "lng": "11.6454220000000",
      "type": "671",
      "phone": "049 9940228"
   },
   {
      "id": "6184",
      "name": "Monteversa",
      "address": "Via Monte Versa, 1024",
      "city": "Vò",
      "lat": "45.3017391000000",
      "lng": "11.6505409000000",
      "type": "671",
      "phone": "049 9941092"
   },
   {
      "id": "6900",
      "name": "Marco Sambin",
      "address": "Via Fattorelle, 20/a",
      "city": "Cinto Euganeo",
      "lat": "45.2993447000000",
      "lng": "11.6515068000000",
      "type": "671",
      "phone": "329 8464757"
   },
   {
      "id": "6641",
      "name": "Piovene Porto Godi",
      "address": "Via Villa, 14",
      "city": "Villaga",
      "lat": "45.3886038000000",
      "lng": "11.5150198000000",
      "type": "671",
      "phone": "0444 885142"
   },
   {
      "id": "6327",
      "name": "Il Filò Delle Vigne",
      "address": "Via Terralba, 14",
      "city": "Baone",
      "lat": "45.2422201000000",
      "lng": "11.7063346000000",
      "type": "671",
      "phone": "0429 56243"
   },
   {
      "id": "6407",
      "name": "Il Mottolo",
      "address": "Via Comezzara, 13",
      "city": "Baone",
      "lat": "45.2480274000000",
      "lng": "11.6889986000000",
      "type": "671",
      "phone": "347 9456155"
   },
   {
      "id": "6232",
      "name": "Ca' Orologio",
      "address": "Via Ca' Orologio, 7/a",
      "city": "Baone",
      "lat": "45.2427524000000",
      "lng": "11.6911994000000",
      "type": "671",
      "phone": "0429 50099"
   },
   {
      "id": "6244",
      "name": "Bruno Grigolli",
      "address": "Via San Bernardino, 10",
      "city": "Mori",
      "lat": "45.8557634000000",
      "lng": "10.9671372000000",
      "type": "671",
      "phone": "0464 917368"
   },
   {
      "id": "6251",
      "name": "Borgo dei Posseri",
      "address": "Località Pozzo Basso",
      "city": "Ala",
      "lat": "45.7651921000000",
      "lng": "11.0212984000000",
      "type": "671",
      "phone": "0464 671899"
   },
   {
      "id": "6651",
      "name": "Dal Maso",
      "address": "Contrada Selva, 62",
      "city": "Montebello Vicentino",
      "lat": "45.4677558000000",
      "lng": "11.3555539000000",
      "type": "671",
      "phone": "0444 649104"
   },
   {
      "id": "6448",
      "name": "Casa Cecchin",
      "address": "Via Agugliana, 11",
      "city": "Montebello Vicentino",
      "lat": "45.4727056000000",
      "lng": "11.3474309000000",
      "type": "671",
      "phone": "0444 649610"
   },
   {
      "id": "6305",
      "name": "La Biancara",
      "address": "Via Biancara, 14",
      "city": "Gambellara",
      "lat": "45.4566900000000",
      "lng": "11.3541500000000",
      "type": "671",
      "phone": "338 9627064"
   },
   {
      "id": "6377",
      "name": "Davide Vignato",
      "address": "Via Capo di Sopra, 39",
      "city": "Gambellara",
      "lat": "45.4645882000000",
      "lng": "11.3390298000000",
      "type": "671",
      "phone": "0444 444144"
   },
   {
      "id": "6374",
      "name": "Filanda de Boron",
      "address": "Via Pozedine, 5",
      "city": "Tione di Trento",
      "lat": "46.0373008000000",
      "lng": "10.7235302000000",
      "type": "671",
      "phone": "347 0511044"
   },
   {
      "id": "6416",
      "name": "Fattori",
      "address": "Via Olmo, 4",
      "city": "Roncà",
      "lat": "45.4621720000000",
      "lng": "11.3177070000000",
      "type": "671",
      "phone": "045 7460041"
   },
   {
      "id": "6817",
      "name": "Daniele Piccinin",
      "address": "Via Governi, 4",
      "city": "San Giovanni Ilarione",
      "lat": "45.5059911000000",
      "lng": "11.2453673000000",
      "type": "671",
      "phone": "348 7030557"
   },
   {
      "id": "6764",
      "name": "Ca' Rugate",
      "address": "Via Pergola, 36",
      "city": "Montecchia di Crosara",
      "lat": "45.4572749000000",
      "lng": "11.2999706000000",
      "type": "671",
      "phone": "045 6176328"
   },
   {
      "id": "6568",
      "name": "Giannitessari",
      "address": "Via Prandi, 10",
      "city": "Roncà",
      "lat": "45.4761300000000",
      "lng": "11.2750700000000",
      "type": "671",
      "phone": "045 7460070"
   },
   {
      "id": "7327",
      "name": "La Cappuccina",
      "address": "Via San Brizio, 125",
      "city": "Monteforte d'Alpone",
      "lat": "45.4499930000000",
      "lng": "11.3015027000000",
      "type": "671",
      "phone": "045 6175036"
   },
   {
      "id": "6949",
      "name": "Dama del Rovere",
      "address": "Via Mezzavilla, 59",
      "city": "Monteforte d'Alpone",
      "lat": "45.4518582000000",
      "lng": "11.2896409000000",
      "type": "671",
      "phone": "045 4970738"
   },
   {
      "id": "7421",
      "name": "Le Battistelle",
      "address": "Via Sambuco, 110",
      "city": "Monteforte d'Alpone",
      "lat": "45.4506930000000",
      "lng": "11.2804450000000",
      "type": "671",
      "phone": "045 6175621"
   },
   {
      "id": "6639",
      "name": "Lorenzo Bongiovanni",
      "address": "Via Sant'Antonio, 28",
      "city": "Avio",
      "lat": "45.7414000000000",
      "lng": "10.9537900000000",
      "type": "671",
      "phone": "0464 684388"
   },
   {
      "id": "6154",
      "name": "Prà",
      "address": "Via della Fontana, 31",
      "city": "Monteforte d'Alpone",
      "lat": "45.4255000000000",
      "lng": "11.2810200000000",
      "type": "671",
      "phone": "045 7612125"
   },
   {
      "id": "7063",
      "name": "Gini",
      "address": "Via Matteotti, 42",
      "city": "Monteforte d'Alpone",
      "lat": "45.4209618000000",
      "lng": "11.2816399000000",
      "type": "671",
      "phone": "045 7611908"
   },
   {
      "id": "6398",
      "name": "Daniele Nardello",
      "address": "Via IV Novembre, 56",
      "city": "Monteforte d'Alpone",
      "lat": "45.4205652000000",
      "lng": "11.2798376000000",
      "type": "671",
      "phone": "045 7612116"
   },
   {
      "id": "6479",
      "name": "Vallarom",
      "address": "",
      "city": "Avio",
      "lat": "45.7109900000000",
      "lng": "10.9381000000000",
      "type": "671",
      "phone": "0464 684297"
   },
   {
      "id": "6945",
      "name": "Balestri Valda",
      "address": "Via Monti, 44",
      "city": "Soave",
      "lat": "45.4349400000000",
      "lng": "11.2459700000000",
      "type": "671",
      "phone": "045 7675393"
   },
   {
      "id": "6633",
      "name": "I Campi - Flavio Prà",
      "address": "Via delle Pezzole, 3",
      "city": "Illasi",
      "lat": "45.4858116000000",
      "lng": "11.1778034000000",
      "type": "671",
      "phone": "045 6175915"
   },
   {
      "id": "6397",
      "name": "Tenuta San Leonardo",
      "address": "Frazione Borghetto all'Adige",
      "city": "Avio",
      "lat": "45.7044200000000",
      "lng": "10.9313484000000",
      "type": "671",
      "phone": "0464 689004"
   },
   {
      "id": "6191",
      "name": "Leonildo Pieropan",
      "address": "Via Camuzzoni, 3",
      "city": "Soave",
      "lat": "45.4223008000000",
      "lng": "11.2485921000000",
      "type": "671",
      "phone": "045 6190171"
   },
   {
      "id": "6729",
      "name": "Inama",
      "address": "Via Biacche, 50",
      "city": "San Bonifacio",
      "lat": "45.3818513000000",
      "lng": "11.2874544000000",
      "type": "671",
      "phone": "045 6104343"
   },
   {
      "id": "6802",
      "name": "Santi",
      "address": "Via Ungheria, 33",
      "city": "Illasi",
      "lat": "45.4634497000000",
      "lng": "11.1843768000000",
      "type": "671",
      "phone": "045 6529068"
   },
   {
      "id": "7362",
      "name": "Corte Adami",
      "address": "Via Circonvallazione Aldo Moro, 32",
      "city": "Soave",
      "lat": "45.4138587000000",
      "lng": "11.2411647000000",
      "type": "671",
      "phone": "045 6190218"
   },
   {
      "id": "6726",
      "name": "Marco Mosconi",
      "address": "",
      "city": "Illasi",
      "lat": "45.4559940000000",
      "lng": "11.1743240000000",
      "type": "671",
      "phone": "045 6529109"
   },
   {
      "id": "6121",
      "name": "Camerani - Corte Sant'Alda  - Adalia",
      "address": "Via Capovilla, 28",
      "city": "Mezzane di Sotto",
      "lat": "45.4859942000000",
      "lng": "11.1379817000000",
      "type": "671",
      "phone": "045 8880006"
   },
   {
      "id": "6051",
      "name": "Roeno",
      "address": "Via Mama, 5",
      "city": "Brentino Belluno",
      "lat": "45.6919903000000",
      "lng": "10.9061185000000",
      "type": "671",
      "phone": "045 7230110"
   },
   {
      "id": "7442",
      "name": "Tenuta Sant'Antonio",
      "address": "Via Ceriani, 23",
      "city": "Colognola ai Colli",
      "lat": "45.4407323000000",
      "lng": "11.1831935000000",
      "type": "671",
      "phone": "045 7650383"
   },
   {
      "id": "6204",
      "name": "Agostino Vicentini",
      "address": "Via Cesare Battisti, 62",
      "city": "Colognola ai Colli",
      "lat": "45.4423240000000",
      "lng": "11.1803050000000",
      "type": "671",
      "phone": "045 7650539"
   },
   {
      "id": "7106",
      "name": "Massimago",
      "address": "Via Giare, 21",
      "city": "Mezzane di Sotto",
      "lat": "45.4691034000000",
      "lng": "11.1467077000000",
      "type": "671",
      "phone": "045 8880143"
   },
   {
      "id": "6466",
      "name": "Villa Canestrari",
      "address": "Via Dante Broglio, 2",
      "city": "Colognola ai Colli",
      "lat": "45.4289506000000",
      "lng": "11.1794744000000",
      "type": "671",
      "phone": "045 7650074"
   },
   {
      "id": "7347",
      "name": "La Giuva",
      "address": "Via Trezzolano, 20/c",
      "city": "Verona",
      "lat": "45.5042862000000",
      "lng": "11.0750248000000",
      "type": "671",
      "phone": "342 1117089"
   },
   {
      "id": "7370",
      "name": "Corte Scaletta",
      "address": "Via Cao di Sopra, 19",
      "city": "San Martino Buon Albergo",
      "lat": "45.4688030000000",
      "lng": "11.1039230000000",
      "type": "671",
      "phone": "045 8740269"
   },
   {
      "id": "6552",
      "name": "Cav. G.B. Bertani",
      "address": "Via Asiago, 1",
      "city": "Grezzana",
      "lat": "45.5172317000000",
      "lng": "11.0229028000000",
      "type": "671",
      "phone": "045 8658444"
   },
   {
      "id": "6592",
      "name": "Terre di Pietra",
      "address": "Via Arcandola, 4",
      "city": "San Martino Buon Albergo",
      "lat": "45.4428989000000",
      "lng": "11.1005408000000",
      "type": "671",
      "phone": "328 0849020"
   },
   {
      "id": "6960",
      "name": "Viviani",
      "address": "Via Mazzano, 8",
      "city": "Negrar",
      "lat": "45.5616345000000",
      "lng": "10.9547584000000",
      "type": "671",
      "phone": "045 7500286"
   },
   {
      "id": "7459",
      "name": "Musella",
      "address": "Via Ferrazzette, 2",
      "city": "San Martino Buon Albergo",
      "lat": "45.4396329000000",
      "lng": "11.0809544000000",
      "type": "671",
      "phone": "045 973385"
   },
   {
      "id": "7162",
      "name": "Giovanna Tantini",
      "address": "Via Unità d'Italia, 10",
      "city": "Castelnuovo del Garda",
      "lat": "45.4418498000000",
      "lng": "11.0735316000000",
      "type": "671",
      "phone": "045 7575070"
   },
   {
      "id": "6113",
      "name": "Tezza",
      "address": "Stradella Maioli, 4",
      "city": "Verona",
      "lat": "45.4757400000000",
      "lng": "11.0244100000000",
      "type": "671",
      "phone": "045 550267"
   },
   {
      "id": "6348",
      "name": "Tommaso Bussola",
      "address": "Via Mulino Turri, 30",
      "city": "Negrar",
      "lat": "45.5305500000000",
      "lng": "10.9522000000000",
      "type": "671",
      "phone": "045 7501740"
   },
   {
      "id": "6952",
      "name": "Vigneti di Ettore",
      "address": "Via Casetta di Montecchio, 1",
      "city": "Negrar",
      "lat": "45.5194663000000",
      "lng": "10.9638449000000",
      "type": "671",
      "phone": "0457 540158"
   },
   {
      "id": "6649",
      "name": "Roberto Mazzi",
      "address": "Via Crosetta, 8",
      "city": "Negrar",
      "lat": "45.5295132000000",
      "lng": "10.9505167000000",
      "type": "671",
      "phone": "045 7502072"
   },
   {
      "id": "7458",
      "name": "Terre di Leone",
      "address": "",
      "city": "Marano di Valpolicella",
      "lat": "45.5565932000000",
      "lng": "10.9160932000000",
      "type": "671",
      "phone": "045 6895040"
   },
   {
      "id": "7473",
      "name": "Albino Armani",
      "address": "Via Ceradello, 401",
      "city": "Dolcè",
      "lat": "45.6103694000000",
      "lng": "10.8570028000000",
      "type": "671",
      "phone": "045 7290033"
   },
   {
      "id": "6880",
      "name": "Recchia",
      "address": "Via Cà Bertoldi, 30",
      "city": "Negrar",
      "lat": "45.5380899000000",
      "lng": "10.9347400000000",
      "type": "671",
      "phone": "045 7500584"
   },
   {
      "id": "7376",
      "name": "Le Marognole",
      "address": "Via Marognole, 7",
      "city": "Marano di Valpolicella",
      "lat": "45.5424010000000",
      "lng": "10.9229370000000",
      "type": "671",
      "phone": "349 2569347"
   },
   {
      "id": "6799",
      "name": "Giuseppe Quintarelli",
      "address": "Via Cerè, 1",
      "city": "Negrar",
      "lat": "45.5189100000000",
      "lng": "10.9476300000000",
      "type": "671",
      "phone": "045 7500016"
   },
   {
      "id": "7192",
      "name": "Gamba",
      "address": "Via Gnirega, 19",
      "city": "Marano di Valpolicella",
      "lat": "45.5399864000000",
      "lng": "10.9215064000000",
      "type": "671",
      "phone": "045 6801714"
   },
   {
      "id": "6959",
      "name": "Antolini",
      "address": "Via Prognol, 22",
      "city": "Marano di Valpolicella",
      "lat": "45.5450508000000",
      "lng": "10.9147947000000",
      "type": "671",
      "phone": "333 6546187"
   },
   {
      "id": "6159",
      "name": "Villa Spinosa",
      "address": "Via Jago Dall'Ora, 14",
      "city": "Negrar",
      "lat": "45.5305843000000",
      "lng": "10.9299682000000",
      "type": "671",
      "phone": "045 7500093"
   },
   {
      "id": "6492",
      "name": "Cantina Valpolicella Negrar",
      "address": "Via Ca' Salgari, 2",
      "city": "Negrar",
      "lat": "45.5204416000000",
      "lng": "10.9388597000000",
      "type": "671",
      "phone": "045 6014300"
   },
   {
      "id": "6566",
      "name": "Le Ragose",
      "address": "Via Ragose, 1",
      "city": "Negrar",
      "lat": "45.5021300000000",
      "lng": "10.9589100000000",
      "type": "671",
      "phone": "045 7513241"
   },
   {
      "id": "6874",
      "name": "Vaona Odino",
      "address": "Via Paverno, 41",
      "city": "Marano di Valpolicella",
      "lat": "45.5381957000000",
      "lng": "10.9148862000000",
      "type": "671",
      "phone": "045 7703710"
   },
   {
      "id": "7056",
      "name": "Ca' La Bionda",
      "address": "Via Bionda, 4",
      "city": "Marano di Valpolicella",
      "lat": "45.5408624000000",
      "lng": "10.9092774000000",
      "type": "671",
      "phone": "045 6801198"
   },
   {
      "id": "6846",
      "name": "Pietro Zanoni",
      "address": "Via Are Zovo, 16/d",
      "city": "Verona",
      "lat": "45.4797513000000",
      "lng": "10.9758894000000",
      "type": "671",
      "phone": "045 8343977"
   },
   {
      "id": "6353",
      "name": "Monte Santoccio",
      "address": "",
      "city": "Fumane",
      "lat": "45.5472888000000",
      "lng": "10.8980969000000",
      "type": "671",
      "phone": "349 6461223"
   },
   {
      "id": "7277",
      "name": "Le Bignele",
      "address": "Via Biniele, 4",
      "city": "Marano di Valpolicella",
      "lat": "45.5333531000000",
      "lng": "10.9105504000000",
      "type": "671",
      "phone": "388 4066545"
   },
   {
      "id": "6103",
      "name": "Stefano Accordini",
      "address": "Località Camparol, 10",
      "city": "Fumane",
      "lat": "45.5668917000000",
      "lng": "10.8679696000000",
      "type": "671",
      "phone": "045 7760138"
   },
   {
      "id": "6253",
      "name": "Paolo Cottini",
      "address": "Via San Micheletto, 3",
      "city": "Fumane",
      "lat": "45.5464869000000",
      "lng": "10.8848766000000",
      "type": "671",
      "phone": "349 5610413"
   },
   {
      "id": "6418",
      "name": "Secondo Marco",
      "address": "Via Campolongo, 9",
      "city": "Fumane",
      "lat": "45.5464869000000",
      "lng": "10.8848766000000",
      "type": "671",
      "phone": "045 6800954"
   },
   {
      "id": "6165",
      "name": "Brigaldara",
      "address": "Via Brigaldara, 20",
      "city": "San Pietro in Cariano",
      "lat": "45.5205500000000",
      "lng": "10.9125900000000",
      "type": "671",
      "phone": "045 7701055"
   },
   {
      "id": "7119",
      "name": "Corte Rugolin",
      "address": "Località Rugolin, 1",
      "city": "Marano di Valpolicella",
      "lat": "45.5236913000000",
      "lng": "10.9087117000000",
      "type": "671",
      "phone": "045 7702153"
   },
   {
      "id": "6330",
      "name": "Manara",
      "address": "Via Don Cesare Biasi, 53",
      "city": "San Pietro in Cariano",
      "lat": "45.5165335000000",
      "lng": "10.9138316000000",
      "type": "671",
      "phone": "045 7701086"
   },
   {
      "id": "6525",
      "name": "Rubinelli Vajol",
      "address": "Via Paladon, 31",
      "city": "San Pietro in Cariano",
      "lat": "45.5221727000000",
      "lng": "10.9075734000000",
      "type": "671",
      "phone": "045 6839277"
   },
   {
      "id": "6219",
      "name": "Le Salette",
      "address": "Via Pio Brugnoli, 11/c",
      "city": "Fumane",
      "lat": "45.5432286000000",
      "lng": "10.8841586000000",
      "type": "671",
      "phone": "045 7701027"
   },
   {
      "id": "6787",
      "name": "Massimino Venturini",
      "address": "Via Semonte, 20",
      "city": "San Pietro in Cariano",
      "lat": "45.5173086000000",
      "lng": "10.9115311000000",
      "type": "671",
      "phone": "335 5219689"
   },
   {
      "id": "6550",
      "name": "Speri",
      "address": "Via Fontana, 14",
      "city": "San Pietro in Cariano",
      "lat": "45.5051590000000",
      "lng": "10.9219840000000",
      "type": "671",
      "phone": "045 7701154"
   },
   {
      "id": "6478",
      "name": "David Sterza",
      "address": "Via Casterna, 37",
      "city": "Fumane",
      "lat": "45.5297306000000",
      "lng": "10.8928750000000",
      "type": "671",
      "phone": "045 6801503"
   },
   {
      "id": "6627",
      "name": "Tedeschi Fratelli",
      "address": "Via Verdi, 4/a",
      "city": "San Pietro in Cariano",
      "lat": "45.5020240000000",
      "lng": "10.9185160000000",
      "type": "671",
      "phone": "045 7701487"
   },
   {
      "id": "6876",
      "name": "Zymè",
      "address": "Via Ca' del Pipa, 1",
      "city": "San Pietro in Cariano",
      "lat": "45.5169499000000",
      "lng": "10.9010519000000",
      "type": "671",
      "phone": "0457 701108"
   },
   {
      "id": "6483",
      "name": "Nicolis",
      "address": "Via Villa Girardi, 29",
      "city": "San Pietro in Cariano",
      "lat": "45.5272000000000",
      "lng": "10.8837800000000",
      "type": "671",
      "phone": "045 7701261"
   },
   {
      "id": "6401",
      "name": "Monte Dall'Ora",
      "address": "Via Monte dall'Ora, 5",
      "city": "San Pietro in Cariano",
      "lat": "45.5063686000000",
      "lng": "10.9026977000000",
      "type": "671",
      "phone": "045 7704462"
   },
   {
      "id": "6091",
      "name": "Lorenzo Begali",
      "address": "Via Cengia, 10",
      "city": "San Pietro in Cariano",
      "lat": "45.4991400000000",
      "lng": "10.9073760000000",
      "type": "671",
      "phone": "045 7725148"
   },
   {
      "id": "7061",
      "name": "Masi Agricola",
      "address": "Via Monteleone, 26",
      "city": "Sant'Ambrogio di Valpolicella",
      "lat": "45.5221100000000",
      "lng": "10.8618800000000",
      "type": "671",
      "phone": "045 6832511"
   },
   {
      "id": "6962",
      "name": "Benedetti Corte Antica",
      "address": "Via Case Sparse Prunea di Sotto, 5",
      "city": "Sant'Ambrogio di Valpolicella",
      "lat": "45.5167579000000",
      "lng": "10.8538759000000",
      "type": "671",
      "phone": "045 6801736"
   },
   {
      "id": "7243",
      "name": "Le Fraghe",
      "address": "",
      "city": "Cavaion Veronese",
      "lat": "45.5458835000000",
      "lng": "10.7931535000000",
      "type": "671",
      "phone": "045 7236832"
   },
   {
      "id": "7143",
      "name": "Cavalchina",
      "address": "Via Sommacampagna, 7",
      "city": "Sommacampagna",
      "lat": "45.4165267000000",
      "lng": "10.9200059000000",
      "type": "671",
      "phone": "045 516002"
   },
   {
      "id": "7387",
      "name": "Tenuta Scerscé",
      "address": "Via Lungo Adda V Alpini, 124",
      "city": "Tirano",
      "lat": "46.2075770000000",
      "lng": "10.1569950000000",
      "type": "671",
      "phone": "346 1542970"
   },
   {
      "id": "6795",
      "name": "Guerrieri Rizzardi",
      "address": "Strada Campazzi, 2",
      "city": "Bardolino",
      "lat": "45.5430520000000",
      "lng": "10.7359170000000",
      "type": "671",
      "phone": "045 7210028"
   },
   {
      "id": "6263",
      "name": "Costadoro",
      "address": "Via Costadoro, 5",
      "city": "Bardolino",
      "lat": "45.5348221000000",
      "lng": "10.7368109000000",
      "type": "671",
      "phone": "045 7211668"
   },
   {
      "id": "7025",
      "name": "Vigneti Villabella",
      "address": "Strada Bisabola, 6",
      "city": "Bardolino",
      "lat": "45.5220128000000",
      "lng": "10.7479882000000",
      "type": "671",
      "phone": "045 7236448"
   },
   {
      "id": "7226",
      "name": "Le Vigne di San Pietro",
      "address": "Via San Pietro, 23",
      "city": "Sommacampagna",
      "lat": "45.4141514000000",
      "lng": "10.8443563000000",
      "type": "671",
      "phone": "045 510016"
   },
   {
      "id": "7338",
      "name": "Monte del Frà",
      "address": "Strada Custoza, 35",
      "city": "Sommacampagna",
      "lat": "45.3887890000000",
      "lng": "10.8255680000000",
      "type": "671",
      "phone": "045 510490"
   },
   {
      "id": "6042",
      "name": "Poggio delle Grazie",
      "address": "Via Milano, 199",
      "city": "Castelnuovo del Garda",
      "lat": "45.4378771000000",
      "lng": "10.7508146000000",
      "type": "671",
      "phone": "347 8608785"
   },
   {
      "id": "7482",
      "name": "La Perla Marco Triacca",
      "address": "Via Valgella, 29/b",
      "city": "Teglio",
      "lat": "46.1614921000000",
      "lng": "10.0630840000000",
      "type": "671",
      "phone": "346 2878894"
   },
   {
      "id": "6884",
      "name": "Menegotti",
      "address": "Località Acquaroli, 7",
      "city": "Villafranca di Verona",
      "lat": "45.3583234000000",
      "lng": "10.8189656000000",
      "type": "671",
      "phone": "045 790 2611"
   },
   {
      "id": "7345",
      "name": "Le Chiusure",
      "address": "Via Boschette, 2",
      "city": "San Felice del Benaco",
      "lat": "45.5957099000000",
      "lng": "10.5509100000000",
      "type": "671",
      "phone": "349 5658842"
   },
   {
      "id": "7445",
      "name": "Albino Piona",
      "address": "Località Casa Palazzina di Prabiano, 2",
      "city": "Villafranca di Verona",
      "lat": "45.3677274000000",
      "lng": "10.7930168000000",
      "type": "671",
      "phone": "045 516055"
   },
   {
      "id": "7138",
      "name": "Pasini - San Giovanni",
      "address": "Via Videlle, 2",
      "city": "Puegnago del Garda",
      "lat": "45.5786946000000",
      "lng": "10.5299645000000",
      "type": "671",
      "phone": "0365 651419"
   },
   {
      "id": "7047",
      "name": "Villa Picta",
      "address": "Via Madonnina, 24",
      "city": "Villimpenta",
      "lat": "45.1316276000000",
      "lng": "11.0387763000000",
      "type": "671",
      "phone": "349 0612138"
   },
   {
      "id": "6226",
      "name": "Togni Rebaioli",
      "address": "Via Rossini, 19",
      "city": "Darfo Boario Terme",
      "lat": "45.9123469000000",
      "lng": "10.2003210000000",
      "type": "671",
      "phone": "339 4986463"
   },
   {
      "id": "7052",
      "name": "Nino Negri",
      "address": "Via Ghibellini, 3",
      "city": "Chiuro",
      "lat": "46.1711623000000",
      "lng": "9.9903743000000",
      "type": "671",
      "phone": "0342 485211"
   },
   {
      "id": "6312",
      "name": "Dirupi",
      "address": "Via San Carlo",
      "city": "Ponte in Valtellina",
      "lat": "46.1696726000000",
      "lng": "9.9808703000000",
      "type": "671",
      "phone": "0342 050667"
   },
   {
      "id": "6761",
      "name": "Marangona",
      "address": "Località Marangona",
      "city": "Pozzolengo",
      "lat": "45.4419900000000",
      "lng": "10.6430400000000",
      "type": "671",
      "phone": "030 919379"
   },
   {
      "id": "7205",
      "name": "Ottella",
      "address": "Località Ottella, 1",
      "city": "Peschiera del Garda",
      "lat": "45.4244908000000",
      "lng": "10.6565270000000",
      "type": "671",
      "phone": "045 7551950"
   },
   {
      "id": "7135",
      "name": "Cascina Maddalena",
      "address": "Via Maddalena, 17",
      "city": "Sirmione",
      "lat": "45.4578661000000",
      "lng": "10.6171155000000",
      "type": "671",
      "phone": "346 0275513"
   },
   {
      "id": "6658",
      "name": "La Basia",
      "address": "Via Predefitte, 31",
      "city": "Puegnago sul Garda",
      "lat": "45.5643500000000",
      "lng": "10.5029700000000",
      "type": "671",
      "phone": "0365 555958"
   },
   {
      "id": "7187",
      "name": "Rainoldi",
      "address": "Via Stelvio, 128",
      "city": "Chiuro",
      "lat": "46.1625000000000",
      "lng": "9.9734300000000",
      "type": "671",
      "phone": "0342 482225"
   },
   {
      "id": "6896",
      "name": "Tenuta Roveglia",
      "address": "Località Roveglia, 1",
      "city": "Pozzolengo",
      "lat": "45.4316269000000",
      "lng": "10.6382374000000",
      "type": "671",
      "phone": "030 918663"
   },
   {
      "id": "6527",
      "name": "Brunello",
      "address": "Via Zappaglia, 8",
      "city": "Pozzolengo",
      "lat": "45.4287372000000",
      "lng": "10.6392451000000",
      "type": "671",
      "phone": "030 918570"
   },
   {
      "id": "6317",
      "name": "La Rifra",
      "address": "Via del Pilandro, 2",
      "city": "Desenzano del Garda",
      "lat": "45.4413200000000",
      "lng": "10.6118501000000",
      "type": "671",
      "phone": "030 9108023"
   },
   {
      "id": "6883",
      "name": "Fondo Bozzole",
      "address": "Via Cantaboa, 12",
      "city": "Poggio Rusco",
      "lat": "44.9874266000000",
      "lng": "11.1566772000000",
      "type": "671",
      "phone": "348 3785695"
   },
   {
      "id": "6631",
      "name": "Cobue",
      "address": "Località Cobue di Sopra",
      "city": "Pozzolengo",
      "lat": "45.4204424000000",
      "lng": "10.6116776000000",
      "type": "671",
      "phone": "030 108319"
   },
   {
      "id": "6382",
      "name": "Podere Selva Capuzza",
      "address": "Località Selva Capuzza",
      "city": "Desenzano del Garda",
      "lat": "45.4187264000000",
      "lng": "10.5918187000000",
      "type": "671",
      "phone": "030 9910381"
   },
   {
      "id": "7425",
      "name": "Pratello",
      "address": "Via Pratello, 26",
      "city": "Padenghe sul Garda",
      "lat": "45.5086656000000",
      "lng": "10.4949843000000",
      "type": "671",
      "phone": "030 9907005"
   },
   {
      "id": "6207",
      "name": "Ar.Pe.Pe.",
      "address": "Via del Buon Consiglio, 4",
      "city": "Sondrio",
      "lat": "46.1712400000000",
      "lng": "9.8978900000000",
      "type": "671",
      "phone": "0342 214120"
   },
   {
      "id": "6054",
      "name": "Montonale",
      "address": "Località Montonale Basso, 6",
      "city": "Desenzano del Garda",
      "lat": "45.4370755000000",
      "lng": "10.5597337000000",
      "type": "671",
      "phone": "030 9103358"
   },
   {
      "id": "7317",
      "name": "Zatti",
      "address": "Via Lanfranchi, 10",
      "city": "Calvagese della Riviera",
      "lat": "45.5406822000000",
      "lng": "10.4484967000000",
      "type": "671",
      "phone": "335 1002830"
   },
   {
      "id": "6871",
      "name": "Alfio Mozzi",
      "address": "Via Ca' Bianca, 19",
      "city": "Castione Andevenno",
      "lat": "46.1663896000000",
      "lng": "9.8156616000000",
      "type": "671",
      "phone": "339 3707018"
   },
   {
      "id": "6270",
      "name": "Cantina Menegola",
      "address": "Via Ezio Vanoni, 16",
      "city": "Castione Andevenno",
      "lat": "46.1698931000000",
      "lng": "9.8037285000000",
      "type": "671",
      "phone": "334 3699971"
   },
   {
      "id": "7129",
      "name": "Noventa",
      "address": "Via Merano, 26",
      "city": "Botticino",
      "lat": "45.5434400000000",
      "lng": "10.3245100000000",
      "type": "671",
      "phone": "030 2691500"
   },
   {
      "id": "7031",
      "name": "Assoviuno",
      "address": "Via Adua, 121",
      "city": "Berbenno in Valtellina",
      "lat": "46.1681135000000",
      "lng": "9.7409224000000",
      "type": "671",
      "phone": "0342 598022"
   },
   {
      "id": "6454",
      "name": "Michele Biancardi",
      "address": "Strada Provinciale 68, km 3,2",
      "city": "Cerignola",
      "lat": "43.9753480000000",
      "lng": "12.6931010000000",
      "type": "671",
      "phone": "339 4912659"
   },
   {
      "id": "6523",
      "name": "Claudio Morelli",
      "address": "Viale Romagna, 47/b",
      "city": "Fano",
      "lat": "43.8509667000000",
      "lng": "13.0066125000000",
      "type": "671",
      "phone": "0721 823352"
   },
   {
      "id": "6941",
      "name": "Gallegati",
      "address": "Via Lugo, 182",
      "city": "Faenza",
      "lat": "44.3398962000000",
      "lng": "11.8688144000000",
      "type": "671",
      "phone": "0546 621149"
   },
   {
      "id": "6591",
      "name": "Crespaia",
      "address": "Località Prelato, 8",
      "city": "Fano",
      "lat": "43.8357590000000",
      "lng": "12.9627959000000",
      "type": "671",
      "phone": "0721 862383"
   },
   {
      "id": "6373",
      "name": "Majolini",
      "address": "Via Manzoni, 3",
      "city": "Ome",
      "lat": "45.6335126000000",
      "lng": "10.1265756000000",
      "type": "671",
      "phone": "030 6527378"
   },
   {
      "id": "7116",
      "name": "Di Sante",
      "address": "Via Leda Antinori, 28",
      "city": "Fano",
      "lat": "43.8240156000000",
      "lng": "12.9311214000000",
      "type": "671",
      "phone": "0721 885627"
   },
   {
      "id": "6328",
      "name": "Tenuta La Viola",
      "address": "Via Colombarone, 888",
      "city": "Bertinoro",
      "lat": "44.1532523000000",
      "lng": "12.1479070000000",
      "type": "671",
      "phone": "0543 445496"
   },
   {
      "id": "6241",
      "name": "Giovanna Madonia",
      "address": "Via de' Cappuccini, 130",
      "city": "Bertinoro",
      "lat": "44.1444930000000",
      "lng": "12.1343655000000",
      "type": "671",
      "phone": "0543 444361"
   },
   {
      "id": "6085",
      "name": "Raffaella Alessandra Bissoni",
      "address": "Via Colecchio, 280",
      "city": "Bertinoro",
      "lat": "44.1515535000000",
      "lng": "12.1169488000000",
      "type": "671",
      "phone": "0543 460382"
   },
   {
      "id": "6216",
      "name": "Mosnel",
      "address": "Via Barboglio, 14",
      "city": "Passirano",
      "lat": "45.6155600000000",
      "lng": "10.0697000000000",
      "type": "671",
      "phone": "030 653117"
   },
   {
      "id": "6676",
      "name": "Moroder",
      "address": "Frazione Montacuto, 121",
      "city": "Ancona",
      "lat": "43.5908500000000",
      "lng": "13.5352845000000",
      "type": "671",
      "phone": "071 898232"
   },
   {
      "id": "7115",
      "name": "Calonga",
      "address": "Via Castel Leone, 8",
      "city": "Forlì",
      "lat": "44.2271987000000",
      "lng": "11.9292121000000",
      "type": "671",
      "phone": "0543 753044"
   },
   {
      "id": "6229",
      "name": "Tenuta Il Plino",
      "address": "Via Montalti, 50",
      "city": "Cesena",
      "lat": "44.0928396000000",
      "lng": "12.1926531000000",
      "type": "671",
      "phone": "337 605729"
   },
   {
      "id": "7367",
      "name": "Monte Alto",
      "address": "Via Luigi Di Bernardo, 98",
      "city": "Iseo",
      "lat": "45.6581555000000",
      "lng": "9.9997888000000",
      "type": "671",
      "phone": "347 8693294"
   },
   {
      "id": "6987",
      "name": "Barone Pizzini",
      "address": "Via San Carlo, 14",
      "city": "Provaglio d'Iseo",
      "lat": "45.6336890000000",
      "lng": "10.0204414000000",
      "type": "671",
      "phone": "030 9848311"
   },
   {
      "id": "6186",
      "name": "Fattoria Monticino Rosso",
      "address": "Via Montecatone, 10",
      "city": "Imola",
      "lat": "44.3589574000000",
      "lng": "11.6563489000000",
      "type": "671",
      "phone": "0542 42687"
   },
   {
      "id": "7255",
      "name": "Drei Donà - Tenuta La Palazza",
      "address": "Via del Tesoro, 23",
      "city": "Forlì",
      "lat": "44.1777895000000",
      "lng": "11.9870939000000",
      "type": "671",
      "phone": "0543 769371"
   },
   {
      "id": "6797",
      "name": "Paolo Francesconi",
      "address": "Via Tuliero, 154",
      "city": "Faenza",
      "lat": "44.2474944000000",
      "lng": "11.8524705000000",
      "type": "671",
      "phone": "0546 43213"
   },
   {
      "id": "6556",
      "name": "Marchetti",
      "address": "Via Pontelungo, 166",
      "city": "Ancona",
      "lat": "43.5755001000000",
      "lng": "13.5025393000000",
      "type": "671",
      "phone": "071 897386"
   },
   {
      "id": "6612",
      "name": "Vigna degli Estensi",
      "address": "Strada della Martuccia, 213/a",
      "city": "Senigallia",
      "lat": "43.6908380000000",
      "lng": "13.1321800000000",
      "type": "671",
      "phone": "071 9727319"
   },
   {
      "id": "7286",
      "name": "Roberto Lucarelli",
      "address": "Via Piana, 20",
      "city": "Cartoceto",
      "lat": "43.7789700000000",
      "lng": "12.8824300000000",
      "type": "671",
      "phone": "0721 893019"
   },
   {
      "id": "6161",
      "name": "Guido Berlucchi & C.",
      "address": "Piazza Duranti, 4",
      "city": "Corte Franca",
      "lat": "45.6208390000000",
      "lng": "10.0130400000000",
      "type": "671",
      "phone": "030 984381"
   },
   {
      "id": "7272",
      "name": "Garuti",
      "address": "Via per Solara, 6",
      "city": "Bomporto",
      "lat": "44.7485914000000",
      "lng": "11.0211040000000",
      "type": "671",
      "phone": "059 902021"
   },
   {
      "id": "7066",
      "name": "Stefano Berti",
      "address": "Via La Scagna, 18",
      "city": "Forlì",
      "lat": "44.1451797000000",
      "lng": "12.0329962000000",
      "type": "671",
      "phone": "335 8440104"
   },
   {
      "id": "6640",
      "name": "Fattoria Zerbina",
      "address": "Via Vicchio, 11",
      "city": "Faenza",
      "lat": "44.2325353000000",
      "lng": "11.8613934000000",
      "type": "671",
      "phone": "0546 40022"
   },
   {
      "id": "7326",
      "name": "Gianfranco Paltrinieri",
      "address": "Via Cristo, 49",
      "city": "Bomporto",
      "lat": "44.7548375000000",
      "lng": "11.0080703000000",
      "type": "671",
      "phone": "059 902047"
   },
   {
      "id": "6101",
      "name": "Tomassetti",
      "address": "Strada della Marina Cesano,16",
      "city": "Senigallia",
      "lat": "43.6908868000000",
      "lng": "13.1068129000000",
      "type": "671",
      "phone": "329 4909660"
   },
   {
      "id": "7222",
      "name": "Cantina della Volta",
      "address": "Via per Modena, 82",
      "city": "Bomporto",
      "lat": "44.7241532000000",
      "lng": "11.0367764000000",
      "type": "671",
      "phone": "059 7473312"
   },
   {
      "id": "6287",
      "name": "Giovannini",
      "address": "Via Punta, 82",
      "city": "Imola",
      "lat": "44.3283200000000",
      "lng": "11.6580600000000",
      "type": "671",
      "phone": "0542 684122"
   },
   {
      "id": "6476",
      "name": "La Calcinara",
      "address": "Via Calcinara, 102/a",
      "city": "Ancona",
      "lat": "43.5597866000000",
      "lng": "13.4715751000000",
      "type": "671",
      "phone": "328 5552643"
   },
   {
      "id": "6289",
      "name": "Ronco Calino",
      "address": "Via Fenice, 45",
      "city": "Adro",
      "lat": "45.6017900000000",
      "lng": "9.9988400000000",
      "type": "671",
      "phone": "030 7451073"
   },
   {
      "id": "7181",
      "name": "Fratta Minore",
      "address": "Via Scorticheto, 2705",
      "city": "Castel San Pietro Terme",
      "lat": "44.3944859000000",
      "lng": "11.5299764000000",
      "type": "671",
      "phone": "051 6951807"
   },
   {
      "id": "6277",
      "name": "Vigna Dorata",
      "address": "Via Sala, 80",
      "city": "Cazzago San Martino",
      "lat": "45.5964880000000",
      "lng": "10.0018307000000",
      "type": "671",
      "phone": "030 7254275"
   },
   {
      "id": "6700",
      "name": "Ferghettina",
      "address": "Via Saline, 11",
      "city": "Adro",
      "lat": "45.6218223000000",
      "lng": "9.9775264000000",
      "type": "671",
      "phone": "030 7451212"
   },
   {
      "id": "6491",
      "name": "1701",
      "address": "Via Galileo Galilei, 44",
      "city": "Cazzago San Martino",
      "lat": "45.5709079000000",
      "lng": "10.0237515000000",
      "type": "671",
      "phone": "030 7750875"
   },
   {
      "id": "6559",
      "name": "Palazzona di Maggio",
      "address": "Via Panzacchi, 16",
      "city": "Ozzano dell'Emilia",
      "lat": "44.4142270000000",
      "lng": "11.4894234000000",
      "type": "671",
      "phone": "335 397030"
   },
   {
      "id": "6170",
      "name": "Chiara Condello",
      "address": "Via Lucchina",
      "city": "Predappio",
      "lat": "44.1392606000000",
      "lng": "11.9873994000000",
      "type": "671",
      "phone": "0543 940860"
   },
   {
      "id": "7414",
      "name": "San Michele",
      "address": "Via Parrocchia, 57",
      "city": "Capriano del Colle",
      "lat": "45.4572660000000",
      "lng": "10.1286379000000",
      "type": "671",
      "phone": "030 9444091"
   },
   {
      "id": "6521",
      "name": "Ca' del Bosco",
      "address": "Via Albano Zanella, 13",
      "city": "Erbusco",
      "lat": "45.5944558000000",
      "lng": "9.9908843000000",
      "type": "671",
      "phone": "030 7766111"
   },
   {
      "id": "7301",
      "name": "Lazzari",
      "address": "Via Mella, 49",
      "city": "Capriano del Colle",
      "lat": "45.4545857000000",
      "lng": "10.1261103000000",
      "type": "671",
      "phone": "030 9747387"
   },
   {
      "id": "6323",
      "name": "Federico Mencaroni",
      "address": "Via Olmigrandi, 72",
      "city": "Corinaldo",
      "lat": "43.6741970000000",
      "lng": "13.0661818000000",
      "type": "671",
      "phone": "071 7975625"
   },
   {
      "id": "7220",
      "name": "Silvano Strologo",
      "address": "Via Osimana, 89",
      "city": "Camerano",
      "lat": "43.5181833000000",
      "lng": "13.5533634000000",
      "type": "671",
      "phone": "071 731104"
   },
   {
      "id": "6790",
      "name": "San Cristoforo",
      "address": "Via Villanuova, 2",
      "city": "Erbusco",
      "lat": "45.5916926000000",
      "lng": "9.9832457000000",
      "type": "671",
      "phone": "030 7760482"
   },
   {
      "id": "6706",
      "name": "Enrico Gatti",
      "address": "Via Metelli, 9",
      "city": "Erbusco",
      "lat": "45.5946129000000",
      "lng": "9.9793835000000",
      "type": "671",
      "phone": "030 7267999"
   },
   {
      "id": "6590",
      "name": "Camossi",
      "address": "Via Metelli, 5",
      "city": "Erbusco",
      "lat": "45.5943600000000",
      "lng": "9.9791700000000",
      "type": "671",
      "phone": "030 7268022"
   },
   {
      "id": "6648",
      "name": "Cavalleri",
      "address": "Via Provinciale, 96",
      "city": "Erbusco",
      "lat": "45.6051338000000",
      "lng": "9.9622872000000",
      "type": "671",
      "phone": "030 7760217"
   },
   {
      "id": "6199",
      "name": "Tenuta di Frà",
      "address": "Via Marciano, 10/b",
      "city": "Morro d’Alba",
      "lat": "43.6095666000000",
      "lng": "13.2334510000000",
      "type": "671",
      "phone": "339 7229846"
   },
   {
      "id": "6284",
      "name": "Vigneto Saetti",
      "address": "Via Santa Maria, 397",
      "city": "Soliera",
      "lat": "44.7387411000000",
      "lng": "10.9507232000000",
      "type": "671",
      "phone": "059 850046"
   },
   {
      "id": "6528",
      "name": "Fondo San Giuseppe",
      "address": "Via Tura",
      "city": "Brisighella",
      "lat": "44.2218069000000",
      "lng": "11.7690457000000",
      "type": "671",
      "phone": "328 4333271"
   },
   {
      "id": "7449",
      "name": "Lorenzo Faccoli & Figli",
      "address": "Via Cava, 7",
      "city": "Coccaglio",
      "lat": "45.5733900000000",
      "lng": "9.9715600000000",
      "type": "671",
      "phone": "030 7722761"
   },
   {
      "id": "6857",
      "name": "Fattoria Le Terrazze",
      "address": "Via Musone, 4",
      "city": "Numana",
      "lat": "43.4822518000000",
      "lng": "13.6109049000000",
      "type": "671",
      "phone": "071 7390352"
   },
   {
      "id": "6742",
      "name": "Vicari",
      "address": "Via Pozzo Buono, 3",
      "city": "Morro d'Alba",
      "lat": "43.6022070000000",
      "lng": "13.2110363000000",
      "type": "671",
      "phone": "0731 63164"
   },
   {
      "id": "7260",
      "name": "Castello Bonomi",
      "address": "Via San Pietro, 46",
      "city": "Coccaglio",
      "lat": "45.5716336000000",
      "lng": "9.9677585000000",
      "type": "671",
      "phone": "030 7721015"
   },
   {
      "id": "6524",
      "name": "Stefano Mancinelli",
      "address": "Via Roma, 62",
      "city": "Morro d'Alba",
      "lat": "43.5995310000000",
      "lng": "13.2124070000000",
      "type": "671",
      "phone": "0731 63021"
   },
   {
      "id": "7373",
      "name": "Corte Fusia",
      "address": "Via degli Orti, 2",
      "city": "Coccaglio",
      "lat": "45.5618922000000",
      "lng": "9.9730671000000",
      "type": "671",
      "phone": "328 8471276"
   },
   {
      "id": "6963",
      "name": "Umani Ronchi",
      "address": "Via Adriatica, 12",
      "city": "Osimo",
      "lat": "43.4915944000000",
      "lng": "13.5594326000000",
      "type": "671",
      "phone": "071 7108019"
   },
   {
      "id": "6422",
      "name": "Lucchetti",
      "address": "Via Santa Maria del Fiore, 17",
      "city": "Morro d'Alba",
      "lat": "43.5929939000000",
      "lng": "13.2150038000000",
      "type": "671",
      "phone": "0731 63314"
   },
   {
      "id": "7253",
      "name": "Fattoria Alessandro Nicolucci",
      "address": "Via Umberto I, 21",
      "city": "Predappio",
      "lat": "44.0996700000000",
      "lng": "11.9629700000000",
      "type": "671",
      "phone": "0543 922361"
   },
   {
      "id": "6329",
      "name": "Nove Lune",
      "address": "Via Valpredina, 5",
      "city": "Cenate Sopra",
      "lat": "45.7146636000000",
      "lng": "9.8138019000000",
      "type": "671",
      "phone": "335 5827757"
   },
   {
      "id": "6717",
      "name": "Tenuta Quadra",
      "address": "Via S.Eusebio, 1",
      "city": "Cologne",
      "lat": "45.5862081000000",
      "lng": "9.9288598000000",
      "type": "671",
      "phone": "030 7157314"
   },
   {
      "id": "7489",
      "name": "Tenuta Santa Lucia",
      "address": "Via Giardino, 1400",
      "city": "Mercato Saraceno",
      "lat": "43.9823500000000",
      "lng": "12.1949000000000",
      "type": "671",
      "phone": "0547 90441"
   },
   {
      "id": "6146",
      "name": "Filodivino",
      "address": "Via Serra, 46",
      "city": "San Marcello",
      "lat": "43.5673883000000",
      "lng": "13.2311053000000",
      "type": "671",
      "phone": "0731 026139"
   },
   {
      "id": "7431",
      "name": "Angelo Pecis",
      "address": "Via San Pietro delle Passere, 12",
      "city": "San Paolo d'Argon",
      "lat": "45.6866420000000",
      "lng": "9.8132530000000",
      "type": "671",
      "phone": "035 959104"
   },
   {
      "id": "7101",
      "name": "F.lli Bucci",
      "address": "Via Cona, 30",
      "city": "Ostra Vetere",
      "lat": "43.6041251000000",
      "lng": "13.1050826000000",
      "type": "671",
      "phone": "071 964179"
   },
   {
      "id": "7462",
      "name": "Bergianti Vino - Terre Vive",
      "address": "Via Paganelle Guerri, 15",
      "city": "Carpi",
      "lat": "44.7392498000000",
      "lng": "10.8636665000000",
      "type": "671",
      "phone": "349 5227337"
   },
   {
      "id": "7354",
      "name": "Gioacchino Garofoli",
      "address": "Via Carlo Marx, 123",
      "city": "Castelfidardo",
      "lat": "43.4501510000000",
      "lng": "13.5912390000000",
      "type": "671",
      "phone": "071 7820162"
   },
   {
      "id": "6623",
      "name": "Il Teatro",
      "address": "Via Monte Trebbio, 17",
      "city": "Modigliana",
      "lat": "44.1531860000000",
      "lng": "11.8009260000000",
      "type": "671",
      "phone": "335 1358688"
   },
   {
      "id": "6879",
      "name": "Lodi Corazza",
      "address": "Via Risorgimento, 223",
      "city": "Zola Predosa",
      "lat": "44.5002088000000",
      "lng": "11.1939408000000",
      "type": "671",
      "phone": "347 3175269"
   },
   {
      "id": "7086",
      "name": "Fiorini",
      "address": "Via Giardino Campioli, 5",
      "city": "Terre Roveresche",
      "lat": "43.6584610000000",
      "lng": "12.9066100000000",
      "type": "671",
      "phone": "0721 97151"
   },
   {
      "id": "7142",
      "name": "Manaresi - Podere Bella Vista",
      "address": "Via Bertoloni 14/16",
      "city": "Zola Predosa",
      "lat": "44.4860946000000",
      "lng": "11.1997899000000",
      "type": "671",
      "phone": "051 751491"
   },
   {
      "id": "7064",
      "name": "Il Monticino",
      "address": "Via Predosa, 72",
      "city": "Zola Predosa",
      "lat": "44.4784968000000",
      "lng": "11.2054824000000",
      "type": "671",
      "phone": "051 755260"
   },
   {
      "id": "7214",
      "name": "Oro di Diamanti",
      "address": "Via Valle, 11/a",
      "city": "Zola Predosa",
      "lat": "44.4623640000000",
      "lng": "11.2308550000000",
      "type": "671",
      "phone": "349 7884750"
   },
   {
      "id": "7444",
      "name": "Roberto Venturi",
      "address": "Contrada Case Nuove, 1/a",
      "city": "Castelleone di Suasa",
      "lat": "43.6068410000000",
      "lng": "12.9834937000000",
      "type": "671",
      "phone": "071 966635"
   },
   {
      "id": "6678",
      "name": "Brunori",
      "address": "Viale della Vittoria, 103",
      "city": "Jesi",
      "lat": "43.5209116000000",
      "lng": "13.2381685000000",
      "type": "671",
      "phone": "0731 207213"
   },
   {
      "id": "7144",
      "name": "Ma.Ri.Ca.",
      "address": "Via Acquasanta, 7",
      "city": "Belvedere Ostrense",
      "lat": "43.5341667000000",
      "lng": "13.1743338000000",
      "type": "671",
      "phone": "0731 290091"
   },
   {
      "id": "7006",
      "name": "Santa Barbara",
      "address": "Borgo Mazzini, 35",
      "city": "Barbara",
      "lat": "43.5833170000000",
      "lng": "13.0259830000000",
      "type": "671",
      "phone": "071 9674249"
   },
   {
      "id": "7084",
      "name": "Pievalta",
      "address": "Via Monteschiavo, 18",
      "city": "Maiolati Spontini",
      "lat": "43.5254911000000",
      "lng": "13.1559240000000",
      "type": "671",
      "phone": "0731 705199"
   },
   {
      "id": "6759",
      "name": "Montecappone",
      "address": "Via Colle Olivo, 2",
      "city": "Jesi",
      "lat": "43.5079400000000",
      "lng": "13.2043530000000",
      "type": "671",
      "phone": "0731 205761"
   },
   {
      "id": "6133",
      "name": "Erioli",
      "address": "Via Monteveglio, 64",
      "city": "Valsamoggia",
      "lat": "44.4987550000000",
      "lng": "11.0865490000000",
      "type": "671",
      "phone": "051 830103"
   },
   {
      "id": "7002",
      "name": "Tenute Pieralisi - Monteschiavo",
      "address": "Via Vivaio",
      "city": "Maiolati Spontini",
      "lat": "43.5091637000000",
      "lng": "13.1663968000000",
      "type": "671",
      "phone": "0731 700385"
   },
   {
      "id": "6239",
      "name": "Fattoria San Lorenzo",
      "address": "Via San Lorenzo, 6",
      "city": "Montecarotto",
      "lat": "43.5371700000000",
      "lng": "13.0751800000000",
      "type": "671",
      "phone": "0731 89656"
   },
   {
      "id": "7407",
      "name": "Podere Il Saliceto",
      "address": "Via Albone, 10",
      "city": "Campogalliano",
      "lat": "44.6693056000000",
      "lng": "10.8266352000000",
      "type": "671",
      "phone": "349 1459612"
   },
   {
      "id": "6303",
      "name": "Fattoria Serra San Martino",
      "address": "Via San Martino, 1",
      "city": "Serra de' Conti",
      "lat": "43.5431515000000",
      "lng": "13.0498109000000",
      "type": "671",
      "phone": "0731 878025"
   },
   {
      "id": "6337",
      "name": "Moncaro",
      "address": "Via Piandole, 7/a",
      "city": "Montecarotto",
      "lat": "43.5251824000000",
      "lng": "13.0976967000000",
      "type": "671",
      "phone": "0731 89245"
   },
   {
      "id": "7314",
      "name": "Sartarelli",
      "address": "Via Coste del Molino, 24",
      "city": "Poggio San Marcello",
      "lat": "43.5224839000000",
      "lng": "13.0995593000000",
      "type": "671",
      "phone": "0731 89732"
   },
   {
      "id": "6925",
      "name": "Mancini",
      "address": "Via Santa Lucia, 7",
      "city": "Maiolati Spontini",
      "lat": "43.5027548000000",
      "lng": "13.1389283000000",
      "type": "671",
      "phone": "0731 702975"
   },